$PMTK001,314,3*36
$PMTK001,220,3*30
$PGACK,33,0*6E
$GPGGA,144639.000,4000.4467,N,10515.7214,W,1,04,1.63,1649.0,M,-20.6,M,,*65
$GPGSV,2,1,08,23,88,127,42,16,58,059,27,51,43,183,40,07,36,278,34*77
$GPGSV,2,2,08,03,22,193,36,08,14,153,,30,05,265,,22,,,19*49
$GPGGA,144640.000,4000.4473,N,10515.7211,W,1,04,1.63,1649.0,M,-20.6,M,,*6B
$GPGSV,2,1,08,23,88,127,41,16,58,059,27,51,43,183,40,07,36,278,35*75
$GPGSV,2,2,08,03,22,193,35,08,14,153,,30,05,265,,22,,,19*4A
$GPGGA,144641.000,4000.4477,N,10515.7210,W,1,04,1.63,1648.8,M,-20.6,M,,*66
$GPGSV,2,1,08,23,88,127,41,16,58,059,27,51,43,183,40,07,36,278,36*76
$GPGSV,2,2,08,03,22,193,35,08,14,153,,30,05,265,,22,,,20*40
$GPGGA,144642.000,4000.4481,N,10515.7205,W,1,04,2.23,1649.1,M,-20.6,M,,*67
$GPGSV,2,1,08,23,88,127,41,16,58,059,27,51,43,183,40,07,36,278,37*77
$GPGSV,2,2,08,03,22,193,34,08,14,153,,30,05,265,,22,,,20*41
$GPGGA,144643.000,4000.4480,N,10515.7202,W,1,04,1.63,1650.5,M,-20.6,M,,*6B
$GPGSV,3,1,09,23,88,127,42,16,58,059,26,09,54,311,,51,43,183,38*7A
$GPGSV,3,2,09,07,36,278,38,03,22,193,33,08,14,153,,30,05,265,*70
$GPGSV,3,3,09,22,,,21*73
$GPGGA,144644.000,4000.4481,N,10515.7199,W,1,04,1.63,1650.8,M,-20.6,M,,*61
$GPGSV,3,1,09,23,88,127,32,16,58,059,27,09,54,311,,51,43,183,27*72
$GPGSV,3,2,09,07,36,278,36,03,22,193,31,08,14,153,,30,05,265,*7C
$GPGSV,3,3,09,22,,,21*73
$GPGGA,144645.000,4000.4480,N,10515.7196,W,1,04,1.63,1651.1,M,-20.6,M,,*66
$GPGSV,3,1,09,23,88,127,33,16,58,059,20,09,54,311,,51,43,183,27*74
$GPGSV,3,2,09,07,36,278,36,03,22,193,29,08,14,153,,30,05,265,*75
$GPGSV,3,3,09,22,,,20*72
$GPGGA,144646.000,4000.4480,N,10515.7193,W,1,04,1.63,1651.6,M,-20.6,M,,*67
$GPGSV,3,1,09,23,88,127,41,16,58,059,27,09,54,311,23,51,43,183,39*78
$GPGSV,3,2,09,07,36,278,44,03,22,193,39,08,14,153,,30,05,265,*71
$GPGSV,3,3,09,22,,,21*73
$GPGGA,144647.000,4000.4475,N,10515.7187,W,1,04,2.23,1651.8,M,-20.6,M,,*60
$GPGSV,3,1,09,23,88,127,41,16,58,059,27,09,54,311,24,51,43,183,40*71
$GPGSV,3,2,09,07,36,278,43,03,22,193,37,08,14,153,,30,05,265,*78
$GPGSV,3,3,09,22,,,21*73
$GPGGA,144648.000,4000.4469,N,10515.7191,W,1,04,1.63,1652.3,M,-20.6,M,,*6A
$GPGSV,3,1,09,23,88,127,42,16,58,059,26,09,54,311,25,51,43,183,40*72
$GPGSV,3,2,09,07,36,278,43,03,22,193,37,08,14,153,24,30,05,265,*7E
$GPGSV,3,3,09,22,,,21*73
$GPGGA,144649.000,4000.4459,N,10515.7197,W,1,04,1.63,1653.7,M,-20.6,M,,*6B
$GPGSV,3,1,09,23,88,127,42,16,58,059,33,09,54,311,33,51,43,183,40*71
$GPGSV,3,2,09,07,36,278,42,03,22,193,38,08,14,153,24,30,05,265,*70
$GPGSV,3,3,09,22,,,23*71
$GPGGA,144650.000,4000.4455,N,10515.7199,W,1,04,1.63,1653.9,M,-20.6,M,,*6F
$GPGSV,3,1,09,23,88,127,40,16,58,059,32,09,54,311,29,51,43,183,29*76
$GPGSV,3,2,09,07,36,278,43,03,22,193,37,08,14,153,23,30,05,265,*79
$GPGSV,3,3,09,22,,,22*70
$GPGGA,144651.000,4000.4451,N,10515.7202,W,1,04,1.63,1653.9,M,-20.6,M,,*6B
$GPGSV,3,1,09,23,88,127,38,16,58,059,32,09,54,311,29,51,43,183,30*71
$GPGSV,3,2,09,07,36,278,41,03,22,193,36,08,14,153,21,30,05,265,*78
$GPGSV,3,3,09,22,,,22*70
$GPGGA,144652.000,4000.4450,N,10515.7199,W,1,04,1.63,1654.1,M,-20.6,M,,*67
$GPGSV,3,1,09,23,88,127,31,16,58,059,33,09,54,311,30,51,43,183,39*78
$GPGSV,3,2,09,07,36,278,41,03,22,193,28,08,14,153,25,30,05,265,*73
$GPGSV,3,3,09,22,,,22*70
$GPGGA,144653.000,4000.4447,N,10515.7197,W,1,04,1.63,1654.6,M,-20.6,M,,*69
$GPGSV,3,1,09,23,88,127,33,16,58,059,42,09,54,311,31,51,43,183,38*7C
$GPGSV,3,2,09,07,36,278,42,03,22,193,37,08,14,153,23,30,05,265,*78
$GPGSV,3,3,09,22,,,23*71
$GPGGA,144654.000,4000.4444,N,10515.7195,W,1,04,1.63,1655.3,M,-20.6,M,,*6B
$GPGSV,3,1,09,23,88,127,43,16,58,059,41,09,54,311,33,51,43,183,39*7B
$GPGSV,3,2,09,07,36,278,43,03,22,193,36,08,14,153,22,30,05,265,*79
$GPGSV,3,3,09,22,,,23*71
$GPGGA,144655.000,4000.4442,N,10515.7192,W,1,04,1.63,1655.7,M,-20.6,M,,*6F
$GPGSV,3,1,09,23,88,127,42,16,58,059,41,09,54,311,34,51,43,183,39*7D
$GPGSV,3,2,09,07,36,278,43,03,22,193,34,08,14,153,22,30,05,265,*7B
$GPGSV,3,3,09,22,,,23*71
$GPGGA,144656.000,4000.4441,N,10515.7189,W,1,04,1.63,1655.6,M,-20.6,M,,*64
$GPGSV,3,1,09,23,88,127,42,16,58,059,40,09,54,311,34,51,43,183,37*72
$GPGSV,3,2,09,07,36,278,44,03,22,193,35,08,14,153,24,30,05,265,*7B
$GPGSV,3,3,09,22,,,22*70
$GPGGA,144657.000,4000.4440,N,10515.7185,W,1,04,1.63,1654.9,M,-20.6,M,,*66
$GPGSV,3,1,09,23,87,129,42,16,58,059,40,09,54,311,35,51,43,183,37*72
$GPGSV,3,2,09,07,36,278,44,03,22,193,35,08,14,153,25,30,05,265,*7A
$GPGSV,3,3,09,22,,,22*70
$GPGGA,144658.000,4000.4440,N,10515.7181,W,1,04,1.63,1654.3,M,-20.6,M,,*67
$GPGSV,3,1,09,23,87,129,42,16,58,059,40,09,54,311,35,51,43,183,37*72
$GPGSV,3,2,09,07,36,278,44,03,22,193,34,08,14,153,25,30,05,265,*7B
$GPGSV,3,3,09,22,,,22*70
$GPGGA,144659.000,4000.4439,N,10515.7177,W,1,04,1.63,1654.0,M,-20.6,M,,*62
$GPGSV,3,1,09,23,87,129,42,16,58,059,40,09,54,311,35,51,43,183,37*72
$GPGSV,3,2,09,07,36,278,44,03,22,193,32,08,14,153,25,30,05,265,*7D
$GPGSV,3,3,09,22,,,21*73
$GPGGA,144700.000,4000.4439,N,10515.7175,W,1,04,1.63,1654.3,M,-20.6,M,,*6E
$GPGSV,3,1,09,23,87,129,42,16,58,059,40,09,54,311,35,51,43,183,37*72
$GPGSV,3,2,09,07,36,278,44,03,22,193,31,08,14,153,25,30,05,265,*7E
$GPGSV,3,3,09,22,,,21*73
$GPGGA,144701.000,4000.4438,N,10515.7172,W,1,04,2.22,1654.5,M,-20.6,M,,*69
$GPGSV,3,1,09,23,87,129,42,16,58,059,40,09,54,311,35,51,43,183,37*72
$GPGSV,3,2,09,07,36,278,44,03,22,193,32,08,14,153,25,30,05,265,*7D
$GPGSV,3,3,09,22,,,21*73
$GPGGA,144702.000,4000.4435,N,10515.7171,W,1,04,1.63,1654.5,M,-20.6,M,,*62
$GPGSV,3,1,09,23,87,129,41,16,58,059,40,09,54,311,35,51,43,183,37*71
$GPGSV,3,2,09,07,36,278,44,03,22,193,32,08,14,153,26,30,05,265,*7E
$GPGSV,3,3,09,22,,,21*73
$GPGGA,144703.000,4000.4433,N,10515.7169,W,1,04,1.63,1654.3,M,-20.6,M,,*6A
$GPGSV,3,1,09,23,87,129,41,16,58,059,40,09,54,311,35,51,43,183,37*71
$GPGSV,3,2,09,07,36,278,45,03,22,193,33,08,14,153,26,30,05,265,*7E
$GPGSV,3,3,09,22,,,21*73
$GPGGA,144704.000,4000.4431,N,10515.7167,W,1,04,1.63,1654.1,M,-20.6,M,,*63
$GPGSV,3,1,09,23,87,129,41,16,58,059,40,09,54,311,35,51,43,183,37*71
$GPGSV,3,2,09,07,36,278,45,03,22,193,32,08,14,153,26,30,06,266,*7F
$GPGSV,3,3,09,22,,,22*70
$GPGGA,144705.000,4000.4429,N,10515.7165,W,1,04,1.63,1654.2,M,-20.6,M,,*6A
$GPGSV,3,1,09,23,87,129,42,16,58,059,40,09,54,311,35,51,43,183,38*7D
$GPGSV,3,2,09,07,36,278,45,03,22,193,33,08,14,153,26,30,06,266,*7E
$GPGSV,3,3,09,22,,,21*73
$GPGGA,144706.000,4000.4427,N,10515.7164,W,1,04,1.63,1654.7,M,-20.6,M,,*63
$GPGSV,3,1,09,23,87,129,42,16,58,059,39,09,54,311,34,51,43,183,39*73
$GPGSV,3,2,09,07,36,278,45,03,22,193,33,08,14,153,26,30,06,266,*7E
$GPGSV,3,3,09,22,,,21*73
$GPGGA,144707.000,4000.4424,N,10515.7164,W,1,04,1.63,1655.1,M,-20.6,M,,*66
$GPGSV,3,1,09,23,87,129,41,16,58,059,39,09,54,311,34,51,43,183,38*71
$GPGSV,3,2,09,07,36,278,45,03,22,193,31,08,14,153,26,30,06,266,*7C
$GPGSV,3,3,09,22,,,21*73
$GPGGA,144708.000,4000.4423,N,10515.7162,W,1,04,1.63,1655.1,M,-20.6,M,,*68
$GPGSV,3,1,09,23,87,129,41,16,58,059,39,09,54,311,34,51,43,183,37*7E
$GPGSV,3,2,09,07,36,278,45,03,22,193,30,08,14,153,26,30,06,266,*7D
$GPGSV,3,3,09,22,,,22*70
$GPGGA,144709.000,4000.4423,N,10515.7160,W,1,04,1.63,1654.8,M,-20.6,M,,*63
$GPGSV,3,1,09,23,87,129,41,16,58,059,39,09,54,311,34,51,43,183,36*7F
$GPGSV,3,2,09,07,36,278,45,03,22,193,30,08,14,153,26,30,06,266,*7D
$GPGSV,3,3,09,22,,,23*71
$GPGGA,144710.000,4000.4422,N,10515.7158,W,1,04,1.63,1654.4,M,-20.6,M,,*6D
$GPGSV,3,1,09,23,87,129,41,16,58,059,38,09,54,311,34,51,43,183,37*7F
$GPGSV,3,2,09,07,36,278,45,03,22,193,30,08,14,153,26,30,06,266,*7D
$GPGSV,3,3,09,22,,,23*71
$GPGGA,144711.000,4000.4422,N,10515.7155,W,1,04,1.63,1654.2,M,-20.6,M,,*67
$GPGSV,3,1,09,23,87,129,41,16,58,059,38,09,54,311,34,51,43,183,37*7F
$GPGSV,3,2,09,07,36,278,45,03,22,193,30,08,14,153,26,30,06,266,*7D
$GPGSV,3,3,09,22,,,23*71
$GPGGA,144712.000,4000.4421,N,10515.7154,W,1,04,1.63,1654.4,M,-20.6,M,,*60
$GPGSV,3,1,09,23,87,129,42,16,58,059,38,09,54,311,34,51,43,183,37*7C
$GPGSV,3,2,09,07,36,278,45,03,22,193,29,08,14,153,26,30,06,266,*75
$GPGSV,3,3,09,22,,,24*76
$GPGGA,144713.000,4000.4420,N,10515.7153,W,1,04,1.63,1654.7,M,-20.6,M,,*64
$GPGSV,3,1,09,23,87,129,42,16,58,059,39,09,54,311,34,51,43,183,35*7F
$GPGSV,3,2,09,07,36,278,45,03,22,193,30,08,14,153,26,30,06,266,*7D
$GPGSV,3,3,09,22,,,25*77
$GPGGA,144714.000,4000.4418,N,10515.7152,W,1,04,2.21,1654.6,M,-20.6,M,,*6D
$GPGSV,3,1,09,23,87,129,42,16,58,059,39,09,54,311,34,51,43,183,35*7F
$GPGSV,3,2,09,07,36,278,45,03,22,193,31,08,14,153,26,30,06,266,*7C
$GPGSV,3,3,09,22,,,26*74
$GPGGA,144715.000,4000.4417,N,10515.7152,W,1,04,1.63,1654.5,M,-20.6,M,,*65
$GPGSV,3,1,09,23,87,129,42,16,58,059,39,09,54,311,34,51,43,183,35*7F
$GPGSV,3,2,09,07,36,278,45,03,22,193,29,08,14,153,26,30,06,266,*75
$GPGSV,3,3,09,22,,,25*77
$GPGGA,144716.000,4000.4416,N,10515.7150,W,1,04,1.63,1654.1,M,-20.6,M,,*61
$GPGSV,3,1,09,23,87,129,42,16,58,059,39,09,54,311,33,51,43,183,35*78
$GPGSV,3,2,09,07,36,278,45,03,22,193,28,08,14,153,26,30,06,266,*74
$GPGSV,3,3,09,22,,,25*77
$GPGGA,144717.000,4000.4415,N,10515.7148,W,1,04,1.63,1653.8,M,-20.6,M,,*64
$GPGSV,3,1,09,23,87,129,42,16,58,059,39,09,54,311,33,51,43,183,35*78
$GPGSV,3,2,09,07,36,278,45,03,22,193,28,08,14,153,26,30,06,266,*74
$GPGSV,3,3,09,22,,,25*77
$GPGGA,144718.000,4000.4415,N,10515.7147,W,1,04,1.63,1653.6,M,-20.6,M,,*6A
$GPGSV,3,1,09,23,87,129,43,16,58,059,38,09,54,311,33,51,43,183,36*7B
$GPGSV,3,2,09,07,36,278,45,03,22,193,29,08,14,153,26,30,06,266,*75
$GPGSV,3,3,09,22,,,25*77
$GPGGA,144719.000,4000.4414,N,10515.7145,W,1,05,1.47,1653.8,M,-20.6,M,,*61
$GPGSV,3,1,09,23,87,129,43,16,58,059,38,09,54,311,33,51,43,183,36*7B
$GPGSV,3,2,09,07,36,278,44,03,22,193,28,08,14,153,26,22,07,181,25*7A
$GPGSV,3,3,09,30,06,266,*47
$GPGGA,144720.000,4000.4414,N,10515.7144,W,1,05,1.47,1653.7,M,-20.6,M,,*65
$GPGSV,3,1,09,23,87,129,43,16,58,059,38,09,54,311,33,51,43,183,36*7B
$GPGSV,3,2,09,07,36,278,44,03,22,193,30,08,15,152,26,22,07,181,25*73
$GPGSV,3,3,09,30,06,266,*47
$GPGGA,144721.000,4000.4416,N,10515.7141,W,1,05,1.47,1653.2,M,-20.6,M,,*66
$GPGSV,3,1,09,23,87,129,43,16,58,059,38,09,54,311,33,51,43,183,37*7A
$GPGSV,3,2,09,07,36,278,44,03,22,193,30,08,15,152,26,22,07,181,25*73
$GPGSV,3,3,09,30,06,266,*47
$GPGGA,144722.000,4000.4417,N,10515.7140,W,1,05,1.47,1652.7,M,-20.6,M,,*61
$GPGSV,3,1,09,23,87,129,43,16,58,059,38,09,54,311,32,51,43,183,38*74
$GPGSV,3,2,09,07,36,278,44,03,22,193,30,08,15,152,26,22,07,181,25*73
$GPGSV,3,3,09,30,06,266,*47
$GPGGA,144723.000,4000.4417,N,10515.7138,W,1,05,1.47,1652.5,M,-20.6,M,,*6D
$GPGSV,3,1,09,23,87,129,43,16,58,059,38,09,54,311,32,51,43,183,38*74
$GPGSV,3,2,09,07,36,278,44,03,22,193,29,08,15,152,26,22,07,181,25*7B
$GPGSV,3,3,09,30,06,266,*47
$GPGGA,144724.000,4000.4417,N,10515.7137,W,1,05,1.47,1652.6,M,-20.6,M,,*66
$GPGSV,3,1,09,23,87,129,43,16,58,059,38,09,54,311,32,51,43,183,38*74
$GPGSV,3,2,09,07,36,278,44,03,22,193,28,08,15,152,26,22,07,181,24*7B
$GPGSV,3,3,09,30,06,266,*47
$GPGGA,144725.000,4000.4415,N,10515.7134,W,1,06,1.37,1652.7,M,-20.6,M,,*63
$GPGSV,3,1,09,23,87,129,43,16,58,059,38,09,54,311,32,51,43,183,37*7B
$GPGSV,3,2,09,07,36,278,44,03,22,193,29,08,15,152,26,22,07,181,24*7A
$GPGSV,3,3,09,30,06,266,*47
$GPGGA,144726.000,4000.4413,N,10515.7132,W,1,06,1.37,1652.6,M,-20.6,M,,*61
$GPGSV,3,1,09,23,87,129,43,16,58,059,38,09,54,311,32,51,43,183,37*7B
$GPGSV,3,2,09,07,36,278,44,03,22,193,29,08,15,152,26,22,07,181,24*7A
$GPGSV,3,3,09,30,06,266,*47
$GPGGA,144727.000,4000.4412,N,10515.7130,W,1,06,1.37,1652.3,M,-20.6,M,,*66
$GPGSV,3,1,09,23,87,129,43,16,58,059,38,09,54,311,32,51,43,183,37*7B
$GPGSV,3,2,09,07,36,278,44,03,22,193,29,08,15,152,25,22,07,181,23*7E
$GPGSV,3,3,09,30,06,266,*47
$GPGGA,144728.000,4000.4412,N,10515.7130,W,1,06,1.37,1652.3,M,-20.6,M,,*69
$GPGSV,3,1,09,23,87,129,43,16,58,059,38,09,54,311,32,51,43,183,37*7B
$GPGSV,3,2,09,07,36,278,44,03,22,193,29,08,15,152,25,22,07,181,24*79
$GPGSV,3,3,09,30,06,266,*47
$GPGGA,144729.000,4000.4411,N,10515.7129,W,1,06,1.37,1652.3,M,-20.6,M,,*63
$GPGSV,3,1,09,23,87,129,44,16,58,059,38,09,54,311,32,51,43,183,36*7D
$GPGSV,3,2,09,07,36,278,44,03,22,193,30,08,15,152,25,22,07,181,24*71
$GPGSV,3,3,09,30,06,266,*47
$GPGGA,144730.000,4000.4411,N,10515.7129,W,1,06,1.37,1652.3,M,-20.6,M,,*6B
$GPGSV,3,1,09,23,87,129,44,16,58,059,37,09,54,311,32,51,43,183,36*72
$GPGSV,3,2,09,07,36,278,44,03,22,193,31,08,15,152,25,22,07,181,24*70
$GPGSV,3,3,09,30,06,266,*47
$GPGGA,144731.000,4000.4410,N,10515.7127,W,1,06,1.37,1652.3,M,-20.6,M,,*65
$GPGSV,3,1,09,23,87,129,44,16,58,059,37,09,54,311,33,51,43,183,37*72
$GPGSV,3,2,09,07,36,278,45,03,22,193,32,08,15,152,25,22,07,181,24*72
$GPGSV,3,3,09,30,06,266,*47
$GPGGA,144732.000,4000.4410,N,10515.7126,W,1,06,1.37,1652.3,M,-20.6,M,,*67
$GPGSV,3,1,09,23,87,129,44,16,58,059,37,09,54,311,33,51,43,183,37*72
$GPGSV,3,2,09,07,36,278,45,03,22,193,32,08,15,152,25,22,07,181,23*75
$GPGSV,3,3,09,30,06,266,*47
$GPGGA,144733.000,4000.4410,N,10515.7126,W,1,06,1.37,1652.3,M,-20.6,M,,*66
$GPGSV,3,1,09,23,87,129,44,16,58,059,37,09,54,311,34,51,43,183,36*74
$GPGSV,3,2,09,07,36,278,46,03,22,193,33,08,15,152,24,22,07,181,23*76
$GPGSV,3,3,09,30,06,266,*47
$GPGGA,144734.000,4000.4410,N,10515.7125,W,1,06,1.37,1652.2,M,-20.6,M,,*63
$GPGSV,3,1,09,23,87,129,44,16,58,059,38,09,54,311,27,51,43,183,36*79
$GPGSV,3,2,09,07,36,278,45,03,22,193,33,08,15,152,23,22,07,181,24*75
$GPGSV,3,3,09,30,06,266,*47
$GPGGA,144735.000,4000.4410,N,10515.7125,W,1,06,1.37,1652.2,M,-20.6,M,,*62
$GPGSV,3,1,09,23,87,131,44,16,58,059,39,09,54,311,27,51,43,183,37*70
$GPGSV,3,2,09,07,36,278,44,03,22,193,33,08,15,152,24,22,07,181,25*72
$GPGSV,3,3,09,30,06,266,*47
$GPGGA,144736.000,4000.4411,N,10515.7125,W,1,06,1.37,1652.2,M,-20.6,M,,*60
$GPGSV,3,1,09,23,87,131,44,16,58,059,40,09,54,311,26,51,43,183,38*70
$GPGSV,3,2,09,07,36,278,44,03,22,193,33,08,15,152,25,22,07,181,25*73
$GPGSV,3,3,09,30,06,266,*47
$GPGGA,144737.000,4000.4411,N,10515.7125,W,1,06,1.37,1652.2,M,-20.6,M,,*61
$GPGSV,3,1,09,23,87,131,44,16,58,059,40,09,54,311,25,51,43,183,38*73
$GPGSV,3,2,09,07,36,278,43,03,22,193,33,08,15,152,25,22,07,181,25*74
$GPGSV,3,3,09,30,06,266,*47
$GPGGA,144738.000,4000.4411,N,10515.7125,W,1,06,1.37,1652.2,M,-20.6,M,,*6E
$GPGSV,3,1,09,23,87,131,44,16,58,059,40,09,54,311,24,51,43,183,39*73
$GPGSV,3,2,09,07,36,278,43,03,22,193,32,08,15,152,25,22,07,181,25*75
$GPGSV,3,3,09,30,06,266,*47
$GPGGA,144739.000,4000.4411,N,10515.7124,W,1,06,1.37,1652.2,M,-20.6,M,,*6E
$GPGSV,3,1,09,23,87,131,45,16,58,059,40,09,54,311,26,51,43,183,40*7E
$GPGSV,3,2,09,07,36,278,43,03,22,193,33,08,15,152,26,22,07,181,26*74
$GPGSV,3,3,09,30,06,266,*47
$GPGGA,144740.000,4000.4412,N,10515.7124,W,1,06,1.97,1652.2,M,-20.6,M,,*69
$GPGSV,3,1,09,23,87,131,44,16,58,059,39,09,54,311,27,51,43,183,40*70
$GPGSV,3,2,09,07,36,278,43,03,22,193,32,08,15,152,26,22,07,181,26*75
$GPGSV,3,3,09,30,06,266,*47
$GPGGA,144741.000,4000.4413,N,10515.7123,W,1,06,1.37,1652.2,M,-20.6,M,,*64
$GPGSV,3,1,09,23,87,131,43,16,58,059,39,09,54,311,27,51,43,183,40*77
$GPGSV,3,2,09,07,36,278,43,03,22,193,33,08,15,152,27,22,07,181,26*75
$GPGSV,3,3,09,30,06,266,*47
$GPGGA,144742.000,4000.4413,N,10515.7122,W,1,06,1.37,1652.2,M,-20.6,M,,*66
$GPGSV,3,1,09,23,87,131,44,16,58,059,39,09,54,311,27,51,43,183,40*70
$GPGSV,3,2,09,07,36,278,43,03,22,193,32,08,15,152,27,22,07,181,27*75
$GPGSV,3,3,09,30,06,266,*47
$GPGGA,144743.000,4000.4413,N,10515.7122,W,1,06,1.37,1652.2,M,-20.6,M,,*67
$GPGSV,3,1,09,23,87,131,44,16,58,059,40,09,54,311,27,51,43,183,39*70
$GPGSV,3,2,09,07,36,278,43,03,22,193,31,08,15,152,27,22,07,181,26*77
$GPGSV,3,3,09,30,06,266,*47
$GPGGA,144744.000,4000.4412,N,10515.7122,W,1,06,1.37,1652.2,M,-20.6,M,,*61
$GPGSV,3,1,09,23,87,131,44,16,58,059,40,09,54,311,28,51,43,183,39*7F
$GPGSV,3,2,09,07,36,278,43,03,22,193,31,08,15,152,26,22,07,181,26*76
$GPGSV,3,3,09,30,06,266,*47
$GPGGA,144745.000,4000.4412,N,10515.7121,W,1,06,1.37,1652.2,M,-20.6,M,,*63
$GPGSV,3,1,09,23,87,131,44,16,58,059,40,09,54,311,28,51,43,183,39*7F
$GPGSV,3,2,09,07,36,278,43,03,22,193,31,08,15,152,27,22,07,181,27*76
$GPGSV,3,3,09,30,06,266,*47
$GPGGA,144746.000,4000.4412,N,10515.7121,W,1,06,1.37,1652.2,M,-20.6,M,,*60
$GPGSV,3,1,09,23,87,131,44,16,58,059,41,09,54,311,29,51,43,183,39*7F
$GPGSV,3,2,09,07,36,278,43,03,22,193,31,08,15,152,27,22,07,181,27*76
$GPGSV,3,3,09,30,06,266,*47
$GPGGA,144747.000,4000.4412,N,10515.7121,W,1,06,1.37,1652.2,M,-20.6,M,,*61
$GPGSV,3,1,09,23,87,131,44,16,58,059,41,09,54,311,29,51,43,183,39*7F
$GPGSV,3,2,09,07,36,278,44,03,22,193,32,08,15,152,28,22,07,181,27*7D
$GPGSV,3,3,09,30,06,266,*47
$GPGGA,144748.000,4000.4413,N,10515.7121,W,1,06,1.37,1652.2,M,-20.6,M,,*6F
$GPGSV,3,1,09,23,87,131,43,16,58,059,41,09,54,311,29,51,43,183,39*78
$GPGSV,3,2,09,07,36,278,45,03,22,193,31,08,15,152,28,22,07,181,27*7F
$GPGSV,3,3,09,30,06,266,*47
$GPGGA,144749.000,4000.4413,N,10515.7120,W,1,06,1.37,1652.2,M,-20.6,M,,*6F
$GPGSV,3,1,09,23,87,131,43,16,58,059,40,09,54,311,31,51,43,183,26*7E
$GPGSV,3,2,09,07,36,278,45,03,22,193,31,08,15,152,28,22,07,181,27*7F
$GPGSV,3,3,09,30,06,266,*47
$GPGGA,144750.000,4000.4412,N,10515.7121,W,1,06,1.37,1652.2,M,-20.6,M,,*67
$GPGSV,3,1,09,23,87,131,42,16,58,059,39,09,54,311,33,51,43,183,26*73
$GPGSV,3,2,09,07,36,278,43,03,22,193,30,08,15,152,29,22,07,181,26*78
$GPGSV,3,3,09,30,06,266,*47
$GPGGA,144751.000,4000.4412,N,10515.7121,W,1,06,1.37,1652.2,M,-20.6,M,,*66
$GPGSV,3,1,09,23,87,131,43,16,58,059,40,09,54,311,32,51,43,183,33*79
$GPGSV,3,2,09,07,36,278,44,03,21,193,31,08,15,152,29,22,07,181,26*7D
$GPGSV,3,3,09,30,06,266,*47
$GPGGA,144752.000,4000.4412,N,10515.7120,W,1,06,1.37,1652.2,M,-20.6,M,,*64
$GPGSV,3,1,09,23,87,131,43,16,58,059,41,09,54,311,32,51,43,183,33*78
$GPGSV,3,2,09,07,36,278,44,03,21,193,31,08,15,152,29,22,07,181,26*7D
$GPGSV,3,3,09,30,06,266,*47
$GPGGA,144753.000,4000.4412,N,10515.7120,W,1,06,1.37,1652.2,M,-20.6,M,,*65
$GPGSV,3,1,09,23,87,131,44,16,58,059,41,09,54,311,32,51,43,183,33*7F
$GPGSV,3,2,09,07,36,278,44,03,21,193,30,08,15,152,29,22,07,181,26*7C
$GPGSV,3,3,09,30,06,266,*47
$GPGGA,144754.000,4000.4412,N,10515.7120,W,1,06,1.37,1652.2,M,-20.6,M,,*62
$GPGSV,3,1,09,23,87,131,45,16,58,059,41,09,54,311,33,51,43,183,33*7F
$GPGSV,3,2,09,07,36,278,45,03,21,193,30,08,15,152,29,22,07,181,26*7D
$GPGSV,3,3,09,30,06,266,*47
$GPGGA,144755.000,4000.4411,N,10515.7120,W,1,06,1.37,1652.2,M,-20.6,M,,*60
$GPGSV,3,1,09,23,87,131,45,16,58,059,39,09,54,311,34,51,43,183,31*75
$GPGSV,3,2,09,07,36,278,45,03,21,193,28,08,15,152,29,22,07,181,25*77
$GPGSV,3,3,09,30,06,266,*47
$GPGGA,144756.000,4000.4410,N,10515.7119,W,1,06,1.37,1652.2,M,-20.6,M,,*68
$GPGSV,3,1,09,23,87,131,45,16,58,059,38,09,54,311,36,51,43,183,30*77
$GPGSV,3,2,09,07,36,278,44,03,21,193,29,08,15,152,29,22,07,181,26*74
$GPGSV,3,3,09,30,06,266,*47
$GPGGA,144757.000,4000.4410,N,10515.7120,W,1,06,1.37,1652.2,M,-20.6,M,,*63
$GPGSV,3,1,09,23,87,131,45,16,58,059,37,09,54,311,36,51,43,183,30*78
$GPGSV,3,2,09,07,36,278,43,03,21,193,30,08,15,152,28,22,07,181,26*7A
$GPGSV,3,3,09,30,06,266,*47
$GPGGA,144758.000,4000.4409,N,10515.7120,W,1,06,1.37,1652.2,M,-20.6,M,,*64
$GPGSV,3,1,09,23,87,131,45,16,58,059,37,09,54,311,34,51,43,183,31*7B
$GPGSV,3,2,09,07,36,278,43,03,21,193,30,08,15,152,28,22,07,181,26*7A
$GPGSV,3,3,09,30,06,266,*47
$GPGGA,144759.000,4000.4409,N,10515.7120,W,1,06,1.37,1652.2,M,-20.6,M,,*65
$GPGSV,3,1,09,23,87,131,45,16,58,059,37,09,54,311,34,51,43,183,29*72
$GPGSV,3,2,09,07,36,278,43,03,21,193,31,08,15,152,28,22,07,181,26*7B
$GPGSV,3,3,09,30,06,266,*47
$GPGGA,144800.000,4000.4409,N,10515.7119,W,1,06,1.37,1652.2,M,-20.6,M,,*6C
$GPGSV,3,1,09,23,87,131,45,16,58,059,37,09,54,311,33,51,43,183,29*75
$GPGSV,3,2,09,07,36,278,43,03,21,193,30,08,15,152,28,22,07,181,26*7A
$GPGSV,3,3,09,30,06,266,*47
$GPGGA,144801.000,4000.4409,N,10515.7118,W,1,06,1.37,1652.2,M,-20.6,M,,*6C
$GPGSV,3,1,09,23,87,131,45,16,58,059,37,09,54,311,32,51,43,183,29*74
$GPGSV,3,2,09,07,36,278,42,03,21,193,30,08,15,152,28,22,07,181,26*7B
$GPGSV,3,3,09,30,06,266,*47
$GPGGA,144802.000,4000.4410,N,10515.7117,W,1,06,1.37,1652.2,M,-20.6,M,,*68
$GPGSV,3,1,09,23,87,131,45,16,58,059,37,09,54,311,33,51,43,183,28*74
$GPGSV,3,2,09,07,36,278,42,03,21,193,20,08,15,152,30,22,07,181,25*70
$GPGSV,3,3,09,30,06,266,*47
$GPGGA,144803.000,4000.4410,N,10515.7116,W,1,06,1.37,1652.2,M,-20.6,M,,*68
$GPGSV,3,1,09,23,87,131,45,16,58,059,37,09,54,311,34,51,43,183,28*73
$GPGSV,3,2,09,07,36,278,42,03,21,193,31,08,15,152,31,22,07,181,25*71
$GPGSV,3,3,09,30,06,266,*47
$GPGGA,144804.000,4000.4410,N,10515.7115,W,1,06,1.37,1652.2,M,-20.6,M,,*6C
$GPGSV,3,1,09,23,87,131,45,16,58,058,30,09,54,311,35,51,43,183,28*74
$GPGSV,3,2,09,07,36,278,42,03,21,193,30,08,15,152,30,22,07,181,25*71
$GPGSV,3,3,09,30,06,266,*47
$GPGGA,144805.000,4000.4410,N,10515.7114,W,1,06,1.37,1652.2,M,-20.6,M,,*6C
$GPGSV,3,1,09,23,87,131,45,16,58,058,37,09,54,311,33,51,43,183,29*74
$GPGSV,3,2,09,07,36,278,41,03,21,193,31,08,15,152,29,22,07,181,26*78
$GPGSV,3,3,09,30,06,266,*47
$GPGGA,144806.000,4000.4411,N,10515.7114,W,1,06,1.37,1652.2,M,-20.6,M,,*6E
$GPGSV,3,1,09,23,87,131,45,16,58,058,36,09,54,311,22,51,43,183,31*7C
$GPGSV,3,2,09,07,36,278,41,03,21,193,31,08,15,152,28,22,07,181,26*79
$GPGSV,3,3,09,30,06,266,*47
$GPGGA,144807.000,4000.4411,N,10515.7114,W,1,06,1.97,1652.2,M,-20.6,M,,*65
$GPGSV,3,1,09,23,87,131,45,16,58,058,34,09,54,311,37,51,43,183,24*7E
$GPGSV,3,2,09,07,36,278,41,03,21,193,30,08,15,152,27,22,07,181,26*77
$GPGSV,3,3,09,30,06,266,*47
$GPGGA,144808.000,4000.4412,N,10515.7115,W,1,06,1.37,1652.2,M,-20.6,M,,*62
$GPGSV,3,1,09,23,87,131,45,16,58,058,35,09,54,311,37,51,43,183,26*7D
$GPGSV,3,2,09,07,36,278,42,03,21,193,28,08,15,152,28,22,07,181,26*72
$GPGSV,3,3,09,30,06,266,*47
$GPGGA,144809.000,4000.4412,N,10515.7115,W,1,06,1.37,1652.2,M,-20.6,M,,*63
$GPGSV,3,1,09,23,87,131,45,16,58,058,35,09,54,311,36,51,43,183,25*7F
$GPGSV,3,2,09,07,36,278,41,03,21,193,28,08,15,152,27,22,07,181,26*7E
$GPGSV,3,3,09,30,06,266,*47
$GPGGA,144810.000,4000.4412,N,10515.7115,W,1,06,1.37,1652.2,M,-20.6,M,,*6B
$GPGSV,3,1,09,23,87,131,45,16,58,058,36,09,54,311,36,51,43,183,24*7D
$GPGSV,3,2,09,07,36,278,41,03,21,193,30,08,15,152,27,22,07,181,26*77
$GPGSV,3,3,09,30,06,266,*47
$GPGGA,144811.000,4000.4412,N,10515.7115,W,1,06,1.37,1652.2,M,-20.6,M,,*6A
$GPGSV,3,1,09,23,87,133,45,16,58,058,36,09,54,311,36,51,43,183,25*7E
$GPGSV,3,2,09,07,36,278,41,03,21,193,30,08,15,152,26,22,07,181,26*76
$GPGSV,3,3,09,30,06,266,*47
$GPGGA,144812.000,4000.4412,N,10515.7114,W,1,06,1.37,1652.2,M,-20.6,M,,*68
$GPGSV,3,1,09,23,87,133,45,16,58,058,36,09,54,311,35,51,43,183,26*7E
$GPGSV,3,2,09,07,36,278,41,03,21,193,31,08,15,152,27,22,07,181,26*76
$GPGSV,3,3,09,30,06,266,*47
$GPGGA,144813.000,4000.4412,N,10515.7114,W,1,06,1.37,1652.2,M,-20.6,M,,*69
$GPGSV,3,1,09,23,87,133,45,16,58,058,36,09,54,311,35,51,43,183,28*70
$GPGSV,3,2,09,07,36,278,40,03,21,193,31,08,15,152,26,22,07,181,26*76
$GPGSV,3,3,09,30,06,266,*47
$GPGGA,144814.000,4000.4411,N,10515.7113,W,1,06,1.37,1652.2,M,-20.6,M,,*6A
$GPGSV,3,1,09,23,87,133,45,16,58,058,37,09,54,311,35,51,43,183,29*70
$GPGSV,3,2,09,07,36,278,40,03,21,193,31,08,15,152,27,22,07,181,27*76
$GPGSV,3,3,09,30,06,266,*47
$GPGGA,144815.000,4000.4411,N,10515.7113,W,1,06,1.37,1652.2,M,-20.6,M,,*6B
$GPGSV,3,1,09,23,87,133,45,16,58,058,37,09,54,311,35,51,43,183,29*70
$GPGSV,3,2,09,07,36,278,39,03,21,193,20,08,15,152,28,22,07,181,26*76
$GPGSV,3,3,09,30,06,266,*47
$GPGGA,144816.000,4000.4411,N,10515.7113,W,1,06,1.37,1652.2,M,-20.6,M,,*68
$GPGSV,3,1,09,23,87,133,45,16,58,058,38,09,54,311,35,51,43,183,29*7F
$GPGSV,3,2,09,07,36,278,40,03,21,193,22,08,15,152,28,22,07,181,26*7A
$GPGSV,3,3,09,30,06,266,*47
$GPGGA,144817.000,4000.4411,N,10515.7113,W,1,06,1.37,1652.2,M,-20.6,M,,*69
$GPGSV,3,1,09,23,87,133,45,16,58,058,39,09,54,311,34,51,43,183,29*7F
$GPGSV,3,2,09,07,36,278,41,03,21,193,23,08,15,152,28,22,07,181,27*7B
$GPGSV,3,3,09,30,06,266,*47
$GPGGA,144818.000,4000.4410,N,10515.7113,W,1,06,1.37,1652.2,M,-20.6,M,,*67
$GPGSV,3,1,09,23,87,133,45,16,58,058,39,09,54,311,34,51,43,183,29*7F
$GPGSV,3,2,09,07,36,278,41,03,21,193,23,08,15,152,28,22,07,181,28*74
$GPGSV,3,3,09,30,06,266,*47
$GPGGA,144819.000,4000.4410,N,10515.7113,W,1,06,1.37,1652.2,M,-20.6,M,,*66
$GPGSV,3,1,09,23,87,133,45,16,58,058,40,09,54,311,35,51,43,183,29*70
$GPGSV,3,2,09,07,36,278,41,03,21,193,24,08,15,152,28,22,07,181,28*73
$GPGSV,3,3,09,30,06,266,*47
$GPGGA,144820.000,4000.4410,N,10515.7111,W,1,06,1.37,1652.2,M,-20.6,M,,*6E
$GPGSV,3,1,09,23,87,133,45,16,58,058,40,09,54,311,35,51,43,183,37*7F
$GPGSV,3,2,09,07,36,278,40,03,21,193,26,08,15,152,28,22,07,181,28*70
$GPGSV,3,3,09,30,06,266,*47
$GPGGA,144821.000,4000.4410,N,10515.7111,W,1,06,1.37,1652.2,M,-20.6,M,,*6F
$GPGSV,3,1,09,23,87,133,45,16,58,058,39,09,54,311,34,51,43,183,36*71
$GPGSV,3,2,09,07,36,278,40,03,21,193,27,08,15,152,27,22,07,181,27*71
$GPGSV,3,3,09,30,06,266,*47
$GPGGA,144822.000,4000.4411,N,10515.7110,W,1,06,1.37,1652.2,M,-20.6,M,,*6C
$GPGSV,3,1,09,23,87,133,45,16,58,058,38,09,54,311,35,51,43,183,36*71
$GPGSV,3,2,09,07,36,278,39,03,21,193,26,08,15,152,26,22,07,181,25*7D
$GPGSV,3,3,09,30,06,266,*47
$GPGGA,144823.000,4000.4411,N,10515.7109,W,1,06,1.37,1652.2,M,-20.6,M,,*65
$GPGSV,3,1,09,23,87,133,45,16,58,058,36,09,54,311,35,51,43,183,37*7E
$GPGSV,3,2,09,07,36,278,37,03,21,193,27,08,15,152,25,22,07,181,24*70
$GPGSV,3,3,09,30,06,266,*47
$GPGGA,144824.000,4000.4410,N,10515.7112,W,2,06,1.37,1652.1,M,-20.6,M,0000,0000*69
$GPGSV,3,1,09,23,87,133,44,16,58,058,36,09,54,311,36,51,43,183,37*7C
$GPGSV,3,2,09,07,36,278,38,03,21,193,26,08,15,152,25,22,07,181,24*7E
$GPGSV,3,3,09,30,06,266,*47
$GPGGA,144825.000,4000.4410,N,10515.7114,W,2,06,1.37,1651.9,M,-20.6,M,0000,0000*65
$GPGSV,3,1,09,23,87,133,43,16,58,058,36,09,54,311,35,51,43,183,36*79
$GPGSV,3,2,09,07,36,278,37,03,21,193,27,08,15,152,25,22,07,181,26*72
$GPGSV,3,3,09,30,06,266,*47
$GPGGA,144826.000,4000.4408,N,10515.7116,W,2,06,1.37,1651.8,M,-20.6,M,0000,0000*6C
$GPGSV,3,1,09,23,87,133,43,16,58,058,35,09,54,311,33,51,43,183,34*7E
$GPGSV,3,2,09,07,36,278,38,03,21,193,27,08,15,152,25,22,07,181,26*7D
$GPGSV,3,3,09,30,06,266,*47
$GPGGA,144827.000,4000.4408,N,10515.7118,W,2,06,1.37,1651.5,M,-20.6,M,0000,0000*6E
$GPGSV,3,1,09,23,87,133,44,16,58,058,28,09,54,311,32,51,43,183,35*75
$GPGSV,3,2,09,07,36,278,38,03,21,193,34,08,15,152,25,22,07,181,26*7F
$GPGSV,3,3,09,30,06,266,*47
$GPGGA,144828.000,4000.4408,N,10515.7123,W,2,06,1.37,1651.2,M,-20.6,M,0000,0000*6E
$GPGSV,3,1,09,23,87,133,45,16,58,058,29,09,54,311,32,51,43,183,36*76
$GPGSV,3,2,09,07,36,278,46,03,21,193,33,08,15,152,25,22,07,181,26*71
$GPGSV,3,3,09,30,06,266,*47
$GPGGA,144829.000,4000.4409,N,10515.7128,W,2,06,1.37,1651.0,M,-20.6,M,0000,0000*67
$GPGSV,3,1,09,23,87,133,46,16,58,058,36,09,54,311,32,51,43,183,34*79
$GPGSV,3,2,09,07,36,278,45,03,21,193,31,08,15,152,24,22,07,181,25*72
$GPGSV,3,3,09,30,06,266,*47
$GPGGA,144830.000,4000.4409,N,10515.7132,W,2,06,1.37,1650.9,M,-20.6,M,0000,0000*6C
$GPGSV,3,1,09,23,87,133,46,16,58,058,37,09,54,311,33,51,43,183,34*79
$GPGSV,3,2,09,07,36,278,45,03,21,193,33,08,15,152,22,22,07,181,23*70
$GPGSV,3,3,09,30,06,266,*47
$GPGGA,144831.000,4000.4409,N,10515.7133,W,2,06,1.37,1650.9,M,-20.6,M,0000,0000*6C
$GPGSV,3,1,09,23,87,133,46,16,58,058,37,09,54,311,34,51,43,183,35*7F
$GPGSV,3,2,09,07,37,279,37,03,21,193,40,08,15,152,22,22,07,181,23*71
$GPGSV,3,3,09,30,06,266,*47
$GPGGA,144832.000,4000.4408,N,10515.7134,W,2,06,1.96,1651.0,M,-20.6,M,0000,0000*6A
$GPGSV,3,1,09,23,87,133,46,16,58,058,38,09,54,311,35,51,43,183,35*71
$GPGSV,3,2,09,07,37,279,36,03,21,193,39,08,15,152,24,22,07,181,23*78
$GPGSV,3,3,09,30,06,266,*47
$GPGGA,144833.000,4000.4407,N,10515.7134,W,2,05,1.78,1651.2,M,-20.6,M,0000,0000*65
$GPGSV,3,1,09,23,87,133,46,16,58,058,39,09,55,311,35,51,43,183,34*70
$GPGSV,3,2,09,07,37,279,26,03,21,193,38,08,15,152,24,22,07,181,23*78
$GPGSV,3,3,09,30,06,266,*47
$GPGGA,144834.000,4000.4405,N,10515.7133,W,2,06,1.37,1651.4,M,-20.6,M,0000,0000*69
$GPGSV,3,1,09,23,87,133,46,16,58,058,39,09,55,311,36,51,43,183,34*73
$GPGSV,3,2,09,07,37,279,36,03,21,193,37,08,15,152,23,22,07,181,22*70
$GPGSV,3,3,09,30,06,266,*47
$GPGGA,144835.000,4000.4403,N,10515.7133,W,2,06,1.37,1651.7,M,-20.6,M,0000,0000*6D
$GPGSV,3,1,09,23,87,133,46,16,58,058,39,09,55,311,36,51,43,183,34*73
$GPGSV,3,2,09,07,37,279,35,03,21,193,37,08,15,152,23,22,07,181,22*73
$GPGSV,3,3,09,30,06,266,*47
$GPGGA,144836.000,4000.4401,N,10515.7133,W,2,06,1.37,1652.1,M,-20.6,M,0000,0000*69
$GPGSV,3,1,09,23,87,133,46,16,58,058,38,09,55,311,36,51,43,183,41*70
$GPGSV,3,2,09,07,37,279,35,03,21,193,36,08,15,152,25,22,07,181,23*75
$GPGSV,3,3,09,30,06,266,*47
$GPGGA,144837.000,4000.4400,N,10515.7133,W,2,06,1.37,1652.4,M,-20.6,M,0000,0000*6C
$GPGSV,3,1,09,23,87,133,45,16,58,058,39,09,55,311,36,51,43,183,34*70
$GPGSV,3,2,09,07,37,279,36,03,21,193,35,08,15,152,26,22,07,181,24*71
$GPGSV,3,3,09,30,06,266,*47
$GPGGA,144838.000,4000.4399,N,10515.7131,W,2,06,1.37,1652.5,M,-20.6,M,0000,0000*67
$GPGSV,3,1,09,23,87,133,44,16,58,058,38,09,55,311,37,51,43,183,34*71
$GPGSV,3,2,09,07,37,279,35,03,21,193,34,08,15,152,25,22,07,181,25*71
$GPGSV,3,3,09,30,06,266,*47
$GPGGA,144839.000,4000.4399,N,10515.7128,W,2,06,1.37,1652.4,M,-20.6,M,0000,0000*6F
$GPGSV,3,1,09,23,87,133,44,16,58,058,37,09,55,311,38,51,43,183,36*73
$GPGSV,3,2,09,07,37,279,35,03,21,193,35,08,15,152,25,22,07,181,26*73
$GPGSV,3,3,09,30,06,266,*47
$GPGGA,144840.000,4000.4399,N,10515.7126,W,2,06,1.37,1652.3,M,-20.6,M,0000,0000*68
$GPGSV,3,1,09,23,87,133,44,16,58,058,36,09,55,311,37,51,43,183,36*7D
$GPGSV,3,2,09,07,37,279,36,03,21,193,35,08,15,152,26,22,07,181,27*72
$GPGSV,3,3,09,30,06,266,*47
$GPGGA,144841.000,4000.4400,N,10515.7125,W,2,06,1.37,1652.1,M,-20.6,M,0000,0000*6F
$GPGSV,3,1,09,23,87,133,44,16,58,058,36,09,55,311,36,51,43,183,37*7D
$GPGSV,3,2,09,07,37,279,37,03,21,193,35,08,15,152,26,22,07,181,27*73
$GPGSV,3,3,09,30,06,266,*47
$GPGGA,144842.000,4000.4400,N,10515.7124,W,2,06,1.96,1652.0,M,-20.6,M,0000,0000*67
$GPGSV,3,1,09,23,87,133,44,16,58,058,36,09,55,311,36,51,43,183,36*7C
$GPGSV,3,2,09,07,37,279,36,03,21,193,35,08,15,152,26,22,07,181,27*72
$GPGSV,3,3,09,30,06,266,*47
$GPGGA,144843.000,4000.4401,N,10515.7122,W,2,06,1.37,1651.9,M,-20.6,M,0000,0000*60
$GPGSV,3,1,09,23,87,133,44,16,58,058,36,09,55,311,37,51,43,183,37*7C
$GPGSV,3,2,09,07,37,279,34,03,21,193,35,08,15,152,27,22,07,181,28*7E
$GPGSV,3,3,09,30,06,266,*47
$GPGGA,144844.000,4000.4402,N,10515.7121,W,2,06,1.37,1651.7,M,-20.6,M,0000,0000*69
$GPGSV,3,1,09,23,87,133,44,16,58,058,35,09,55,311,38,51,43,183,38*7F
$GPGSV,3,2,09,07,37,279,35,03,21,193,36,08,15,152,27,22,07,181,28*7C
$GPGSV,3,3,09,30,06,266,*47
$GPGGA,144845.000,4000.4401,N,10515.7119,W,2,06,1.37,1651.7,M,-20.6,M,0000,0000*60
$GPGSV,3,1,09,23,87,133,44,16,58,058,37,09,55,311,38,51,43,183,37*72
$GPGSV,3,2,09,07,37,279,35,03,21,193,36,08,15,152,27,22,07,181,28*7C
$GPGSV,3,3,09,30,06,266,*47
$GPGGA,144846.000,4000.4402,N,10515.7116,W,2,06,1.37,1651.7,M,-20.6,M,0000,0000*6F
$GPGSV,3,1,09,23,87,133,44,16,58,058,37,09,55,311,38,51,43,183,36*73
$GPGSV,3,2,09,07,37,279,36,03,21,193,37,08,15,152,28,22,07,181,28*71
$GPGSV,3,3,09,30,06,266,*47
$GPGGA,144847.000,4000.4401,N,10515.7114,W,2,06,1.37,1651.8,M,-20.6,M,0000,0000*60
$GPGSV,3,1,09,23,87,133,44,16,58,058,38,09,55,311,38,51,43,183,37*7D
$GPGSV,3,2,09,07,37,279,36,03,21,193,36,08,15,152,29,22,06,180,28*71
$GPGSV,3,3,09,30,06,266,*47
$GPGGA,144848.000,4000.4401,N,10515.7111,W,2,06,1.37,1651.9,M,-20.6,M,0000,0000*6B
$GPGSV,3,1,09,23,87,134,44,16,58,058,38,09,55,311,38,51,43,183,37*7A
$GPGSV,3,2,09,07,37,279,37,03,21,193,36,08,15,152,29,22,06,180,28*70
$GPGSV,3,3,09,30,06,266,*47
$GPGGA,144849.000,4000.4400,N,10515.7108,W,2,07,1.27,1652.1,M,-20.6,M,0000,0000*68
$GPGSV,3,1,09,23,87,134,45,16,58,058,39,09,55,311,38,51,43,183,37*7A
$GPGSV,3,2,09,07,37,279,38,03,21,193,36,08,15,152,30,22,06,180,28*77
$GPGSV,3,3,09,30,06,266,*47
$GPGGA,144850.000,4000.4400,N,10515.7104,W,2,07,1.27,1652.3,M,-20.6,M,0000,0000*6E
$GPGSV,3,1,09,23,87,134,45,16,58,058,38,09,55,311,38,51,43,183,38*74
$GPGSV,3,2,09,07,37,279,37,03,21,193,36,08,15,152,28,22,06,180,27*7E
$GPGSV,3,3,09,30,06,266,*47
$GPGGA,144851.000,4000.4400,N,10515.7101,W,2,07,1.27,1652.6,M,-20.6,M,0000,0000*6F
$GPGSV,3,1,09,23,87,134,45,16,58,058,38,09,55,311,38,51,43,183,38*74
$GPGSV,3,2,09,07,37,279,37,03,21,193,37,08,15,152,28,22,06,180,27*7F
$GPGSV,3,3,09,30,06,266,*47
$GPGGA,144852.000,4000.4399,N,10515.7098,W,2,07,1.27,1653.0,M,-20.6,M,0000,0000*6D
$GPGSV,3,1,09,23,87,134,45,16,58,058,38,09,55,311,37,51,43,183,38*7B
$GPGSV,3,2,09,07,37,279,38,03,21,193,37,08,15,152,28,22,06,180,26*71
$GPGSV,3,3,09,30,06,266,*47
$GPGGA,144853.000,4000.4398,N,10515.7096,W,2,07,1.27,1653.3,M,-20.6,M,0000,0000*60
$GPGSV,3,1,09,23,87,134,45,16,58,058,38,09,55,311,37,51,43,183,39*7A
$GPGSV,3,2,09,07,37,279,39,03,21,193,37,08,15,152,28,22,06,180,26*70
$GPGSV,3,3,09,30,06,266,*47
$GPGGA,144854.000,4000.4397,N,10515.7094,W,2,07,1.27,1653.5,M,-20.6,M,0000,0000*6C
$GPGSV,3,1,09,23,87,134,45,16,58,058,39,09,55,311,36,51,43,183,39*7A
$GPGSV,3,2,09,07,37,279,39,03,21,193,37,08,15,152,28,22,06,180,26*70
$GPGSV,3,3,09,30,06,266,*47
$GPGGA,144855.000,4000.4397,N,10515.7092,W,2,07,1.27,1653.6,M,-20.6,M,0000,0000*68
$GPGSV,3,1,09,23,87,134,45,16,58,058,39,09,55,311,36,51,43,183,39*7A
$GPGSV,3,2,09,07,37,279,39,03,21,193,36,08,15,152,28,22,06,180,26*71
$GPGSV,3,3,09,30,06,266,*47
$GPGGA,144856.000,4000.4396,N,10515.7090,W,2,07,1.27,1653.6,M,-20.6,M,0000,0000*68
$GPGSV,3,1,09,23,87,134,44,16,58,058,39,09,55,311,35,51,43,183,39*78
$GPGSV,3,2,09,07,37,279,40,03,21,193,37,08,15,152,28,22,06,180,27*7F
$GPGSV,3,3,09,30,06,266,*47
$GPGGA,144857.000,4000.4395,N,10515.7090,W,2,07,1.27,1653.5,M,-20.6,M,0000,0000*69
$GPGSV,3,1,09,23,87,134,44,16,58,058,39,09,55,311,34,51,43,183,38*78
$GPGSV,3,2,09,07,37,279,32,03,21,193,37,08,15,152,21,22,06,180,27*73
$GPGSV,3,3,09,30,06,266,*47
$GPGGA,144858.000,4000.4395,N,10515.7088,W,2,07,1.27,1653.5,M,-20.6,M,0000,0000*6F
$GPGSV,3,1,09,23,87,134,43,16,58,058,40,09,55,311,34,51,43,183,37*7E
$GPGSV,3,2,09,07,37,279,43,03,21,193,38,08,15,152,22,22,06,180,28*76
$GPGSV,3,3,09,30,06,266,*47
$GPGGA,144859.000,4000.4395,N,10515.7087,W,2,07,1.27,1653.3,M,-20.6,M,0000,0000*67
$GPGSV,3,1,09,23,87,134,44,16,58,058,40,09,55,311,34,51,43,183,36*78
$GPGSV,3,2,09,07,37,279,41,03,21,193,38,08,15,152,23,22,06,180,28*75
$GPGSV,3,3,09,30,06,266,*47
$GPGGA,144900.000,4000.4394,N,10515.7087,W,2,07,1.85,1653.1,M,-20.6,M,0000,0000*61
$GPGSV,3,1,09,23,87,134,44,16,58,058,41,09,55,311,34,51,43,183,35*7A
$GPGSV,3,2,09,07,37,279,39,03,21,193,39,08,15,152,23,22,06,180,28*7B
$GPGSV,3,3,09,30,06,266,*47
$GPGGA,144901.000,4000.4394,N,10515.7087,W,2,07,1.85,1652.8,M,-20.6,M,0000,0000*68
$GPGSV,3,1,09,23,87,134,44,16,58,058,41,09,55,311,34,51,43,183,35*7A
$GPGSV,3,2,09,07,37,279,38,03,21,193,39,08,15,152,23,22,06,180,28*7A
$GPGSV,3,3,09,30,06,266,*47
$GPGGA,144902.000,4000.4393,N,10515.7085,W,2,07,1.85,1652.5,M,-20.6,M,0000,0000*63
$GPGSV,3,1,09,23,87,134,44,16,58,058,41,09,55,311,34,51,43,183,36*79
$GPGSV,3,2,09,07,37,279,37,03,21,193,39,08,15,152,23,22,06,180,28*75
$GPGSV,3,3,09,30,06,266,*47
$GPGGA,144903.000,4000.4392,N,10515.7084,W,2,07,1.27,1652.2,M,-20.6,M,0000,0000*6D
$GPGSV,3,1,09,23,87,134,44,16,58,058,41,09,55,311,34,51,43,183,36*79
$GPGSV,3,2,09,07,37,279,37,03,21,193,40,08,15,152,24,22,06,180,29*7D
$GPGSV,3,3,09,30,06,266,*47
$GPGGA,144904.000,4000.4391,N,10515.7083,W,2,07,1.27,1651.9,M,-20.6,M,0000,0000*66
$GPGSV,3,1,09,23,87,134,44,16,58,058,41,09,55,311,35,51,43,183,35*7B
$GPGSV,3,2,09,07,37,279,37,03,21,193,40,08,15,152,23,22,06,180,28*7B
$GPGSV,3,3,09,30,06,266,*47
$GPGGA,144905.000,4000.4391,N,10515.7082,W,2,07,1.27,1651.7,M,-20.6,M,0000,0000*68
$GPGSV,3,1,09,23,87,134,44,16,58,058,40,09,55,311,35,51,43,183,36*79
$GPGSV,3,2,09,07,37,279,38,03,21,193,39,08,15,152,23,22,06,180,28*7A
$GPGSV,3,3,09,30,06,266,*47
$GPGGA,144906.000,4000.4391,N,10515.7082,W,2,07,1.27,1651.5,M,-20.6,M,0000,0000*69
$GPGSV,3,1,09,23,87,134,44,16,58,058,40,09,55,311,35,51,43,183,36*79
$GPGSV,3,2,09,07,37,279,45,03,21,193,38,08,15,152,25,22,06,180,27*78
$GPGSV,3,3,09,30,06,266,*47
$GPGGA,144907.000,4000.4391,N,10515.7082,W,2,07,1.85,1651.4,M,-20.6,M,0000,0000*61
$GPGSV,3,1,09,23,87,134,45,16,58,058,39,09,55,311,35,51,43,183,37*77
$GPGSV,3,2,09,07,37,279,45,03,21,193,37,08,15,152,26,22,06,180,27*74
$GPGSV,3,3,09,30,06,266,*47
$GPGGA,144908.000,4000.4391,N,10515.7082,W,2,07,1.85,1651.4,M,-20.6,M,0000,0000*6E
$GPGSV,3,1,09,23,87,134,45,16,58,058,39,09,55,311,36,51,43,183,38*7B
$GPGSV,3,2,09,07,37,279,45,03,21,193,37,08,15,152,26,22,06,180,27*74
$GPGSV,3,3,09,30,06,266,*47
$GPGGA,144909.000,4000.4391,N,10515.7082,W,2,07,1.85,1651.4,M,-20.6,M,0000,0000*6F
$GPGSV,3,1,09,23,87,134,45,16,58,058,39,09,55,311,36,51,43,183,39*7A
$GPGSV,3,2,09,07,37,279,44,03,21,193,38,08,15,152,25,22,06,180,27*79
$GPGSV,3,3,09,30,06,266,*47
$GPGGA,144910.000,4000.4391,N,10515.7082,W,2,07,1.85,1651.4,M,-20.6,M,0000,0000*67
$GPGSV,3,1,09,23,87,134,45,16,58,058,39,09,55,311,37,51,43,183,38*7A
$GPGSV,3,2,09,07,37,279,43,03,21,193,39,08,15,152,24,22,06,180,28*71
$GPGSV,3,3,09,30,06,266,*47
$GPGGA,144911.000,4000.4391,N,10515.7082,W,2,07,1.85,1651.4,M,-20.6,M,0000,0000*66
$GPGSV,3,1,09,23,87,134,45,16,58,058,40,09,55,311,37,51,43,183,39*75
$GPGSV,3,2,09,07,37,279,42,03,21,193,40,08,15,152,24,22,06,180,29*7F
$GPGSV,3,3,09,30,06,266,*47
$GPGGA,144912.000,4000.4391,N,10515.7082,W,2,07,1.85,1651.4,M,-20.6,M,0000,0000*65
$GPGSV,3,1,09,23,87,134,45,16,58,058,40,09,55,311,37,51,43,183,38*74
$GPGSV,3,2,09,07,37,279,42,03,21,193,40,08,15,152,24,22,06,180,30*77
$GPGSV,3,3,09,30,06,266,*47
$GPGGA,144913.000,4000.4391,N,10515.7082,W,2,07,1.85,1651.4,M,-20.6,M,0000,0000*64
$GPGSV,3,1,09,23,87,134,45,16,58,058,40,09,55,311,37,51,43,183,38*74
$GPGSV,3,2,09,07,37,279,43,03,21,193,40,08,15,152,24,22,06,180,30*76
$GPGSV,3,3,09,30,06,266,*47
$GPGGA,144914.000,4000.4391,N,10515.7082,W,2,07,1.85,1651.4,M,-20.6,M,0000,0000*63
$GPGSV,3,1,09,23,87,134,45,16,58,058,40,09,55,311,37,51,43,183,38*74
$GPGSV,3,2,09,07,37,279,43,03,21,193,40,08,15,152,24,22,06,180,30*76
$GPGSV,3,3,09,30,06,266,*47
$GPGGA,144915.000,4000.4391,N,10515.7082,W,2,07,1.85,1651.4,M,-20.6,M,0000,0000*62
$GPGSV,3,1,09,23,87,134,45,16,58,058,40,09,55,311,37,51,43,183,38*74
$GPGSV,3,2,09,07,37,279,43,03,21,193,40,08,15,152,24,22,06,180,30*76
$GPGSV,3,3,09,30,06,266,*47
$GPGGA,144916.000,4000.4391,N,10515.7082,W,2,07,1.85,1651.4,M,-20.6,M,0000,0000*61
$GPGSV,3,1,09,23,87,134,45,16,58,058,40,09,55,311,37,51,43,183,39*75
$GPGSV,3,2,09,07,37,279,43,03,21,193,40,08,15,152,24,22,06,180,30*76
$GPGSV,3,3,09,30,06,266,*47
$GPGGA,144917.000,4000.4391,N,10515.7082,W,2,07,1.85,1651.4,M,-20.6,M,0000,0000*60
$GPGSV,3,1,09,23,87,134,45,16,57,058,40,09,55,311,37,51,43,183,40*74
$GPGSV,3,2,09,07,37,279,43,03,21,193,40,08,15,152,24,22,06,180,30*76
$GPGSV,3,3,09,30,06,266,*47
$GPGGA,144918.000,4000.4391,N,10515.7082,W,2,07,1.85,1651.4,M,-20.6,M,0000,0000*6F
$GPGSV,3,1,09,23,87,134,45,16,57,058,40,09,55,311,37,51,43,183,40*74
$GPGSV,3,2,09,07,37,279,43,03,21,193,40,08,15,152,24,22,06,180,30*76
$GPGSV,3,3,09,30,06,266,*47
$GPGGA,144919.000,4000.4391,N,10515.7082,W,2,07,1.85,1651.4,M,-20.6,M,0000,0000*6E
$GPGSV,3,1,09,23,87,134,45,16,57,058,40,09,55,311,37,51,43,183,40*74
$GPGSV,3,2,09,07,37,279,43,03,21,193,40,08,15,152,24,22,06,180,30*76
$GPGSV,3,3,09,30,06,266,*47
$GPGGA,144920.000,4000.4391,N,10515.7082,W,2,07,1.85,1651.4,M,-20.6,M,0000,0000*64
$GPGSV,3,1,09,23,87,134,45,16,57,058,40,09,55,311,37,51,43,183,40*74
$GPGSV,3,2,09,07,37,279,43,03,21,193,40,08,15,152,24,22,06,180,31*77
$GPGSV,3,3,09,30,06,266,*47
$GPGGA,144921.000,4000.4391,N,10515.7082,W,2,07,1.85,1651.4,M,-20.6,M,0000,0000*65
$GPGSV,3,1,09,23,87,134,45,16,57,058,40,09,55,311,37,51,43,183,40*74
$GPGSV,3,2,09,07,37,279,43,03,21,193,40,08,15,152,24,22,06,180,31*77
$GPGSV,3,3,09,30,06,266,*47
$GPGGA,144922.000,4000.4391,N,10515.7082,W,2,07,1.85,1651.4,M,-20.6,M,0000,0000*66
$GPGSV,3,1,09,23,87,134,45,16,57,058,40,09,55,311,36,51,43,183,40*75
$GPGSV,3,2,09,07,37,279,43,03,21,193,40,08,15,152,24,22,06,180,31*77
$GPGSV,3,3,09,30,06,266,*47
$GPGGA,144923.000,4000.4391,N,10515.7082,W,2,07,1.85,1651.4,M,-20.6,M,0000,0000*67
$GPGSV,3,1,09,23,87,134,45,16,57,058,40,09,55,311,36,51,43,183,39*7B
$GPGSV,3,2,09,07,37,279,44,03,21,193,40,08,15,152,24,22,06,180,31*70
$GPGSV,3,3,09,30,06,266,*47
$GPGGA,144924.000,4000.4391,N,10515.7082,W,2,07,1.85,1651.4,M,-20.6,M,0000,0000*60
$GPGSV,3,1,09,23,86,136,45,16,57,058,40,09,55,311,36,51,43,183,39*78
$GPGSV,3,2,09,07,37,279,44,03,21,193,40,08,15,152,24,22,06,180,31*70
$GPGSV,3,3,09,30,06,266,*47
$GPGGA,144925.000,4000.4391,N,10515.7082,W,2,07,1.85,1651.4,M,-20.6,M,0000,0000*61
$GPGSV,3,1,09,23,86,136,45,16,57,058,40,09,55,311,36,51,43,183,39*78
$GPGSV,3,2,09,07,37,279,44,03,21,193,40,08,15,152,25,22,06,180,31*71
$GPGSV,3,3,09,30,06,266,*47
$GPGGA,144926.000,4000.4391,N,10515.7082,W,2,07,1.85,1651.4,M,-20.6,M,0000,0000*62
$GPGSV,3,1,09,23,86,136,45,16,57,058,40,09,55,311,35,51,43,183,39*7B
$GPGSV,3,2,09,07,37,279,45,03,21,193,40,08,15,152,26,22,06,180,31*73
$GPGSV,3,3,09,30,06,266,*47
$GPGGA,144927.000,4000.4391,N,10515.7082,W,2,07,1.85,1651.4,M,-20.6,M,0000,0000*63
$GPGSV,3,1,09,23,86,136,45,16,57,058,40,09,55,311,35,51,43,183,39*7B
$GPGSV,3,2,09,07,37,279,45,03,21,193,40,08,15,152,27,22,06,180,31*72
$GPGSV,3,3,09,30,06,266,*47
$GPGGA,144928.000,4000.4391,N,10515.7082,W,2,07,1.85,1651.4,M,-20.6,M,0000,0000*6C
$GPGSV,3,1,09,23,86,136,45,16,57,058,40,09,55,311,34,51,43,183,39*7A
$GPGSV,3,2,09,07,37,279,46,03,21,193,40,08,15,152,27,22,06,180,31*71
$GPGSV,3,3,09,30,06,266,*47
$GPGGA,144929.000,4000.4391,N,10515.7082,W,2,07,1.84,1651.4,M,-20.6,M,0000,0000*6C
$GPGSV,3,1,09,23,86,136,45,16,57,058,40,09,55,311,34,51,43,183,39*7A
$GPGSV,3,2,09,07,37,279,46,03,21,193,40,08,15,152,26,22,06,180,31*70
$GPGSV,3,3,09,30,06,266,*47
$GPGGA,144930.000,4000.4392,N,10515.7082,W,2,07,1.85,1651.4,M,-20.6,M,0000,0000*66
$GPGSV,3,1,09,23,86,136,45,16,57,058,40,09,55,311,35,51,43,183,39*7B
$GPGSV,3,2,09,07,37,279,46,03,21,193,40,08,15,152,26,22,06,180,31*70
$GPGSV,3,3,09,30,06,266,*47
$GPGGA,144931.000,4000.4392,N,10515.7082,W,2,07,1.84,1651.4,M,-20.6,M,0000,0000*66
$GPGSV,3,1,09,23,86,136,45,16,57,058,40,09,55,311,35,51,43,183,38*7A
$GPGSV,3,2,09,07,37,279,46,03,21,193,40,08,15,152,26,22,06,180,31*70
$GPGSV,3,3,09,30,06,266,*47
$GPGGA,144932.000,4000.4392,N,10515.7083,W,2,07,1.84,1651.4,M,-20.6,M,0000,0000*64
$GPGSV,3,1,09,23,86,136,45,16,57,058,40,09,55,311,35,51,43,183,37*75
$GPGSV,3,2,09,07,37,279,46,03,21,193,40,08,15,152,26,22,06,180,31*70
$GPGSV,3,3,09,30,06,266,*47
$GPGGA,144933.000,4000.4392,N,10515.7083,W,2,07,1.85,1651.4,M,-20.6,M,0000,0000*64
$GPGSV,3,1,09,23,86,136,45,16,57,058,40,09,55,311,35,51,43,183,37*75
$GPGSV,3,2,09,07,37,279,46,03,21,193,40,08,15,152,26,22,06,180,30*71
$GPGSV,3,3,09,30,06,266,*47
$GPGGA,144934.000,4000.4392,N,10515.7083,W,2,07,1.84,1651.4,M,-20.6,M,0000,0000*62
$GPGSV,3,1,09,23,86,136,45,16,57,058,40,09,55,311,34,51,43,183,37*74
$GPGSV,3,2,09,07,37,279,46,03,21,193,39,08,15,152,26,22,06,180,30*7F
$GPGSV,3,3,09,30,06,266,*47
$GPGGA,144935.000,4000.4392,N,10515.7083,W,2,07,1.85,1651.4,M,-20.6,M,0000,0000*62
$GPGSV,3,1,09,23,86,136,45,16,57,058,39,09,55,311,34,51,43,183,37*7A
$GPGSV,3,2,09,07,37,279,46,03,21,193,39,08,15,152,26,22,06,180,30*7F
$GPGSV,3,3,09,30,06,266,*47
$GPGGA,144936.000,4000.4392,N,10515.7083,W,2,07,1.84,1651.4,M,-20.6,M,0000,0000*60
$GPGSV,3,1,09,23,86,136,45,16,57,058,37,09,55,311,34,51,43,183,37*74
$GPGSV,3,2,09,07,37,279,45,03,21,193,39,08,15,152,26,22,06,180,29*74
$GPGSV,3,3,09,30,06,266,*47
$GPGGA,144937.000,4000.4392,N,10515.7083,W,2,07,1.84,1651.4,M,-20.6,M,0000,0000*61
$GPGSV,3,1,09,23,86,136,45,16,57,058,37,09,55,311,34,51,43,183,36*75
$GPGSV,3,2,09,07,37,279,44,03,21,193,40,08,15,152,25,22,06,180,29*78
$GPGSV,3,3,09,30,06,266,*47
$GPGGA,144938.000,4000.4392,N,10515.7083,W,2,07,1.84,1651.4,M,-20.6,M,0000,0000*6E
$GPGSV,3,1,09,23,86,136,45,16,57,058,37,09,55,311,34,51,43,183,35*76
$GPGSV,3,2,09,07,37,279,43,03,21,193,39,08,15,152,25,22,06,180,28*70
$GPGSV,3,3,09,30,06,266,*47
$GPGGA,144939.000,4000.4392,N,10515.7083,W,2,07,1.84,1651.4,M,-20.6,M,0000,0000*6F
$GPGSV,3,1,09,23,86,136,45,16,57,058,36,09,55,311,34,51,43,183,35*77
$GPGSV,3,2,09,07,37,279,43,03,21,193,39,08,15,152,25,22,06,180,27*7F
$GPGSV,3,3,09,30,06,266,*47
$GPGGA,144940.000,4000.4392,N,10515.7083,W,2,07,1.84,1651.4,M,-20.6,M,0000,0000*61
$GPGSV,3,1,09,23,86,136,45,16,57,058,35,09,55,311,33,51,43,183,35*73
$GPGSV,3,2,09,07,37,279,44,03,21,193,39,08,15,152,25,22,06,180,27*78
$GPGSV,3,3,09,30,06,266,*47
$GPGGA,144941.000,4000.4392,N,10515.7083,W,2,07,1.84,1651.4,M,-20.6,M,0000,0000*60
$GPGSV,3,1,09,23,86,136,44,16,57,058,35,09,55,311,33,51,43,183,35*72
$GPGSV,3,2,09,07,37,279,45,03,21,193,39,08,15,152,26,22,06,180,27*7A
$GPGSV,3,3,09,30,06,266,*47
$GPGGA,144942.000,4000.4392,N,10515.7083,W,2,07,1.84,1651.4,M,-20.6,M,0000,0000*63
$GPGSV,3,1,09,23,86,136,44,16,57,058,34,09,55,311,33,51,43,183,35*73
$GPGSV,3,2,09,07,37,279,46,03,21,193,39,08,15,152,27,22,06,180,28*77
$GPGSV,3,3,09,30,06,266,*47
$GPGGA,144943.000,4000.4392,N,10515.7083,W,2,07,1.84,1651.4,M,-20.6,M,0000,0000*62
$GPGSV,3,1,09,23,86,136,44,16,57,058,34,09,55,311,33,51,43,183,35*73
$GPGSV,3,2,09,07,37,279,46,03,21,193,39,08,15,152,27,22,06,180,28*77
$GPGSV,3,3,09,30,06,266,*47
$GPGGA,144944.000,4000.4392,N,10515.7083,W,2,07,1.84,1651.4,M,-20.6,M,0000,0000*65
$GPGSV,3,1,09,23,86,136,44,16,57,058,32,09,55,311,33,51,43,183,36*76
$GPGSV,3,2,09,07,37,279,46,03,21,193,39,08,15,152,27,22,06,180,28*77
$GPGSV,3,3,09,30,06,266,*47
$GPGGA,144945.000,4000.4392,N,10515.7083,W,2,07,1.84,1651.4,M,-20.6,M,0000,0000*64
$GPGSV,3,1,09,23,86,136,44,16,57,058,31,09,55,311,33,51,43,183,37*74
$GPGSV,3,2,09,07,37,279,45,03,21,193,39,08,15,152,27,22,06,180,28*74
$GPGSV,3,3,09,30,06,266,*47
$GPGGA,144946.000,4000.4392,N,10515.7083,W,2,07,1.84,1651.4,M,-20.6,M,0000,0000*67
$GPGSV,3,1,09,23,86,136,44,16,57,058,29,09,55,311,32,51,43,183,38*73
$GPGSV,3,2,09,07,37,279,44,03,21,193,39,08,15,152,27,22,06,180,28*75
$GPGSV,3,3,09,30,06,266,*47
$GPGGA,144947.000,4000.4392,N,10515.7083,W,2,07,1.84,1651.4,M,-20.6,M,0000,0000*66
$GPGSV,3,1,09,23,86,136,44,16,57,058,30,09,55,311,30,51,43,183,38*79
$GPGSV,3,2,09,07,37,279,44,03,21,193,39,08,15,152,27,22,06,180,28*75
$GPGSV,3,3,09,30,06,266,*47
$GPGGA,144948.000,4000.4392,N,10515.7083,W,2,07,1.84,1651.4,M,-20.6,M,0000,0000*69
$GPGSV,3,1,09,23,86,136,44,16,57,058,32,09,55,311,30,51,43,183,38*7B
$GPGSV,3,2,09,07,37,279,45,03,21,193,39,08,15,152,25,22,06,180,29*77
$GPGSV,3,3,09,30,06,266,*47
$GPGGA,144949.000,4000.4392,N,10515.7083,W,2,07,1.84,1651.4,M,-20.6,M,0000,0000*68
$GPGSV,3,1,09,23,86,136,44,16,57,058,33,09,55,311,30,51,43,183,38*7A
$GPGSV,3,2,09,07,37,279,45,03,21,193,39,08,15,152,24,22,06,180,29*76
$GPGSV,3,3,09,30,06,266,*47
$GPGGA,144950.000,4000.4392,N,10515.7083,W,2,07,1.84,1651.4,M,-20.6,M,0000,0000*60
$GPGSV,3,1,09,23,86,136,44,16,57,058,33,09,55,311,29,51,43,183,39*73
$GPGSV,3,2,09,07,37,279,45,03,21,193,39,08,15,152,25,22,06,180,29*77
$GPGSV,3,3,09,30,06,266,*47
$GPGGA,144951.000,4000.4392,N,10515.7083,W,2,07,1.84,1651.4,M,-20.6,M,0000,0000*61
$GPGSV,3,1,09,23,86,136,44,16,57,058,34,09,55,311,28,51,43,183,39*75
$GPGSV,3,2,09,07,37,279,45,03,21,193,38,08,15,152,25,22,06,180,29*76
$GPGSV,3,3,09,30,06,266,*47
$GPGGA,144952.000,4000.4392,N,10515.7083,W,2,07,1.84,1651.4,M,-20.6,M,0000,0000*62
$GPGSV,3,1,09,23,86,136,44,16,57,058,34,09,55,311,27,51,43,183,39*7A
$GPGSV,3,2,09,07,37,279,45,03,21,193,37,08,15,152,26,22,06,180,28*7B
$GPGSV,3,3,09,30,06,266,*47
$GPGGA,144953.000,4000.4392,N,10515.7083,W,2,07,1.84,1651.4,M,-20.6,M,0000,0000*63
$GPGSV,3,1,09,23,86,136,44,16,57,057,35,09,55,311,28,51,43,183,39*7B
$GPGSV,3,2,09,07,37,279,45,03,21,193,37,08,15,152,26,22,06,180,27*74
$GPGSV,3,3,09,30,06,266,*47
$GPGGA,144954.000,4000.4392,N,10515.7083,W,2,07,1.84,1651.4,M,-20.6,M,0000,0000*64
$GPGSV,3,1,09,23,86,136,44,16,57,057,35,09,55,311,27,51,43,183,40*7A
$GPGSV,3,2,09,07,37,279,44,03,21,193,37,08,15,152,25,22,06,180,27*76
$GPGSV,3,3,09,30,06,266,*47
$GPGGA,144955.000,4000.4392,N,10515.7083,W,2,07,1.84,1651.4,M,-20.6,M,0000,0000*65
$GPGSV,3,1,09,23,86,136,44,16,57,057,35,09,55,311,20,51,43,183,40*7D
$GPGSV,3,2,09,07,37,279,45,03,21,193,37,08,15,152,25,22,06,180,27*77
$GPGSV,3,3,09,30,06,266,*47
$GPGGA,144956.000,4000.4392,N,10515.7083,W,2,07,1.84,1651.4,M,-20.6,M,0000,0000*66
$GPGSV,3,1,09,23,86,136,45,16,57,057,35,09,55,311,19,51,43,183,40*76
$GPGSV,3,2,09,07,37,279,46,03,21,193,37,08,15,152,24,22,06,180,27*75
$GPGSV,3,3,09,30,06,266,*47
$GPGGA,144957.000,4000.4391,N,10515.7083,W,2,07,1.84,1651.5,M,-20.6,M,0000,0000*65
$GPGSV,3,1,09,23,86,136,45,16,57,057,35,09,55,311,19,51,43,183,40*76
$GPGSV,3,2,09,07,37,279,46,03,21,193,37,08,15,152,23,22,06,180,27*72
$GPGSV,3,3,09,30,06,266,*47
$GPGGA,144958.000,4000.4391,N,10515.7083,W,2,07,1.84,1651.5,M,-20.6,M,0000,0000*6A
$GPGSV,3,1,09,23,86,136,45,16,57,057,36,09,55,311,21,51,43,183,41*7F
$GPGSV,3,2,09,07,37,279,46,03,21,193,37,08,15,152,23,22,06,180,26*73
$GPGSV,3,3,09,30,06,266,*47
$GPGGA,144959.000,4000.4391,N,10515.7083,W,2,07,1.84,1651.5,M,-20.6,M,0000,0000*6B
$GPGSV,3,1,09,23,86,136,45,16,57,057,36,09,55,311,28,51,43,183,41*76
$GPGSV,3,2,09,07,37,279,46,03,21,193,37,08,15,152,24,22,06,180,25*77
$GPGSV,3,3,09,30,06,266,*47
$GPGGA,145000.000,4000.4391,N,10515.7083,W,2,07,1.84,1651.5,M,-20.6,M,0000,0000*6F
$GPGSV,3,1,09,23,86,137,45,16,57,057,37,09,55,311,28,51,43,183,41*76
$GPGSV,3,2,09,07,37,279,46,03,21,193,37,08,15,152,25,22,06,180,24*77
$GPGSV,3,3,09,30,06,266,*47
$GPGGA,145001.000,4000.4391,N,10515.7084,W,2,07,1.84,1651.5,M,-20.6,M,0000,0000*69
$GPGSV,3,1,09,23,86,137,45,16,57,057,37,09,55,311,28,51,43,183,41*76
$GPGSV,3,2,09,07,37,279,45,03,21,193,38,08,15,152,25,22,06,180,24*7B
$GPGSV,3,3,09,30,06,266,*47
$GPGGA,145002.000,4000.4391,N,10515.7084,W,2,07,1.84,1651.5,M,-20.6,M,0000,0000*6A
$GPGSV,3,1,09,23,86,137,44,16,57,057,37,09,55,311,28,51,43,183,41*77
$GPGSV,3,2,09,07,37,279,44,03,21,193,38,08,15,152,25,22,06,180,23*7D
$GPGSV,3,3,09,30,06,266,*47
$GPGGA,145003.000,4000.4391,N,10515.7084,W,2,07,1.84,1651.5,M,-20.6,M,0000,0000*6B
$GPGSV,3,1,09,23,86,137,44,16,57,057,37,09,55,311,28,51,43,183,41*77
$GPGSV,3,2,09,07,37,279,44,03,21,193,37,08,15,152,25,22,06,180,22*73
$GPGSV,3,3,09,30,06,266,*47
$GPGGA,145004.000,4000.4391,N,10515.7084,W,2,07,1.84,1651.5,M,-20.6,M,0000,0000*6C
$GPGSV,3,1,09,23,86,137,44,16,57,057,37,09,55,311,28,51,43,183,41*77
$GPGSV,3,2,09,07,37,279,44,03,21,193,37,08,15,152,25,22,06,180,21*70
$GPGSV,3,3,09,30,06,266,*47
$GPGGA,145005.000,4000.4391,N,10515.7084,W,2,07,1.84,1651.5,M,-20.6,M,0000,0000*6D
$GPGSV,3,1,09,23,86,137,43,16,57,057,36,09,55,311,21,51,43,183,41*78
$GPGSV,3,2,09,07,37,279,44,03,21,193,37,08,15,152,24,22,06,180,20*70
$GPGSV,3,3,09,30,06,266,*47
$GPGGA,145006.000,4000.4391,N,10515.7084,W,2,07,1.84,1651.5,M,-20.6,M,0000,0000*6E
$GPGSV,3,1,09,23,86,137,43,16,57,057,36,09,55,311,21,51,43,183,41*78
$GPGSV,3,2,09,07,37,279,44,03,21,193,36,08,15,152,23,22,06,180,19*7C
$GPGSV,3,3,09,30,06,266,*47
$GPGGA,145007.000,4000.4391,N,10515.7084,W,2,07,1.84,1651.5,M,-20.6,M,0000,0000*6F
$GPGSV,3,1,09,23,86,137,43,16,57,057,36,09,55,311,21,51,43,183,41*78
$GPGSV,3,2,09,07,37,279,44,03,21,193,36,08,15,152,23,22,06,180,17*72
$GPGSV,3,3,09,30,06,267,*46
$GPGGA,145008.000,4000.4391,N,10515.7084,W,2,07,1.84,1651.6,M,-20.6,M,0000,0000*63
$GPGSV,3,1,09,23,86,137,43,16,57,057,36,09,55,311,22,51,43,183,41*7B
$GPGSV,3,2,09,07,37,279,44,03,21,193,36,08,15,152,23,22,06,180,16*73
$GPGSV,3,3,09,30,06,267,*46
$GPGGA,145009.000,4000.4391,N,10515.7084,W,2,07,1.84,1651.6,M,-20.6,M,0000,0000*62
$GPGSV,3,1,09,23,86,137,43,16,57,057,36,09,55,311,22,51,43,183,41*7B
$GPGSV,3,2,09,07,37,279,44,03,21,193,35,08,15,152,24,22,06,180,16*77
$GPGSV,3,3,09,30,06,267,*46
$GPGGA,145010.000,4000.4391,N,10515.7084,W,2,07,1.84,1651.5,M,-20.6,M,0000,0000*69
$GPGSV,3,1,09,23,86,137,43,16,57,057,36,09,55,311,22,51,43,183,41*7B
$GPGSV,3,2,09,07,37,279,45,03,21,193,36,08,15,152,25,22,06,180,13*71
$GPGSV,3,3,09,30,06,267,*46
$GPGGA,145011.000,4000.4391,N,10515.7084,W,2,07,1.84,1651.5,M,-20.6,M,0000,0000*68
$GPGSV,3,1,09,23,86,137,44,16,57,057,36,09,55,311,22,51,43,183,41*7C
$GPGSV,3,2,09,07,37,279,45,03,21,193,37,08,15,152,24,22,06,180,12*70
$GPGSV,3,3,09,30,06,267,*46
$GPGGA,145012.000,4000.4391,N,10515.7084,W,2,07,1.84,1651.5,M,-20.6,M,0000,0000*6B
$GPGSV,3,1,09,23,86,137,44,16,57,057,35,09,55,311,22,51,43,183,41*7F
$GPGSV,3,2,09,07,37,279,45,03,21,193,37,08,15,152,25,22,06,180,10*73
$GPGSV,3,3,09,30,06,267,*46
$GPGGA,145013.000,4000.4391,N,10515.7084,W,2,07,1.84,1651.5,M,-20.6,M,0000,0000*6A
$GPGSV,3,1,09,23,86,137,44,16,57,057,35,09,55,311,22,51,43,183,41*7F
$GPGSV,3,2,09,07,37,279,45,03,21,193,36,08,15,152,25,22,06,180,13*71
$GPGSV,3,3,09,30,06,267,*46
$GPGGA,145014.000,4000.4391,N,10515.7084,W,2,07,1.84,1651.5,M,-20.6,M,0000,0000*6D
$GPGSV,3,1,09,23,86,137,44,16,57,057,34,09,55,311,21,51,43,183,40*7C
$GPGSV,3,2,09,07,37,279,45,03,21,193,35,08,15,152,22,22,06,180,11*77
$GPGSV,3,3,09,30,06,267,*46
$GPGGA,145015.000,4000.4391,N,10515.7084,W,2,07,1.84,1651.5,M,-20.6,M,0000,0000*6C
$GPGSV,3,1,09,23,86,137,44,16,57,057,34,09,55,311,22,51,43,183,39*71
$GPGSV,3,2,09,07,37,279,45,03,20,193,35,08,15,152,22,22,06,180,17*70
$GPGSV,3,3,09,30,06,267,*46
$GPGGA,145016.000,4000.4391,N,10515.7084,W,2,07,1.84,1651.5,M,-20.6,M,0000,0000*6F
$GPGSV,3,1,09,23,86,137,44,16,57,057,34,09,55,311,21,51,43,183,39*72
$GPGSV,3,2,09,07,37,279,46,03,20,193,36,08,15,152,22,22,06,180,18*7F
$GPGSV,3,3,09,30,06,267,*46
$GPGGA,145017.000,4000.4391,N,10515.7084,W,2,07,1.84,1651.5,M,-20.6,M,0000,0000*6E
$GPGSV,3,1,09,23,86,137,44,16,57,057,35,09,55,311,20,51,43,183,39*72
$GPGSV,3,2,09,07,37,279,46,03,20,193,36,08,15,152,21,22,06,180,19*7D
$GPGSV,3,3,09,30,06,267,*46
$GPGGA,145018.000,4000.4391,N,10515.7084,W,2,07,1.84,1651.6,M,-20.6,M,0000,0000*62
$GPGSV,3,1,09,23,86,137,44,16,57,057,35,09,55,311,20,51,43,183,39*72
$GPGSV,3,2,09,07,37,279,46,03,20,193,37,08,15,152,21,22,06,180,18*7D
$GPGSV,3,3,09,30,06,267,*46
$GPGGA,145019.000,4000.4391,N,10515.7084,W,2,07,1.84,1651.6,M,-20.6,M,0000,0000*63
$GPGSV,3,1,09,23,86,137,44,16,57,057,25,09,55,311,34,51,43,183,39*76
$GPGSV,3,2,09,07,37,279,44,03,20,193,38,08,15,152,20,22,06,180,20*7A
$GPGSV,3,3,09,30,06,267,*46
$GPGGA,145020.000,4000.4391,N,10515.7084,W,2,07,1.84,1651.6,M,-20.6,M,0000,0000*69
$GPGSV,3,1,09,23,86,137,44,16,57,057,33,09,55,311,34,51,43,183,40*7F
$GPGSV,3,2,09,07,37,279,43,03,20,193,38,08,16,152,21,22,06,180,23*7C
$GPGSV,3,3,09,30,06,267,*46
$GPGGA,145021.000,4000.4391,N,10515.7084,W,2,07,1.84,1651.6,M,-20.6,M,0000,0000*68
$GPGSV,3,1,09,23,86,137,44,16,57,057,32,09,56,311,33,51,43,183,40*7A
$GPGSV,3,2,09,07,37,279,43,03,20,193,38,08,16,152,21,22,06,180,23*7C
$GPGSV,3,3,09,30,06,267,*46
$GPGGA,145022.000,4000.4391,N,10515.7085,W,2,07,1.84,1651.6,M,-20.6,M,0000,0000*6A
$GPGSV,3,1,09,23,86,137,44,16,57,057,33,09,56,311,33,51,43,183,41*7A
$GPGSV,3,2,09,07,37,279,43,03,20,193,38,08,16,152,22,22,06,180,23*7F
$GPGSV,3,3,09,30,06,267,*46
$GPGGA,145023.000,4000.4391,N,10515.7085,W,2,07,1.84,1651.6,M,-20.6,M,0000,0000*6B
$GPGSV,3,1,09,23,86,137,44,16,57,057,31,09,56,311,33,51,43,183,41*78
$GPGSV,3,2,09,07,37,279,43,03,20,193,38,08,16,152,23,22,06,180,23*7E
$GPGSV,3,3,09,30,06,267,*46
$GPGGA,145024.000,4000.4391,N,10515.7085,W,2,07,1.84,1651.6,M,-20.6,M,0000,0000*6C
$GPGSV,3,1,09,23,86,137,43,16,57,057,33,09,56,311,33,51,43,183,41*7D
$GPGSV,3,2,09,07,37,279,43,03,20,193,38,08,16,152,22,22,06,180,22*7E
$GPGSV,3,3,09,30,06,267,*46
$GPGGA,145025.000,4000.4390,N,10515.7085,W,2,07,1.84,1651.6,M,-20.6,M,0000,0000*6C
$GPGSV,3,1,09,23,86,137,43,16,57,057,33,09,56,311,33,51,43,183,40*7C
$GPGSV,3,2,09,07,37,279,42,03,20,193,39,08,16,152,23,22,06,180,22*7F
$GPGSV,3,3,09,30,06,267,*46
$GPGGA,145026.000,4000.4390,N,10515.7085,W,2,07,1.84,1651.6,M,-20.6,M,0000,0000*6F
$GPGSV,3,1,09,23,86,137,43,16,57,057,34,09,56,311,32,51,43,183,40*7A
$GPGSV,3,2,09,07,37,279,41,03,20,193,40,08,16,152,24,22,06,180,22*75
$GPGSV,3,3,09,30,06,267,*46
$GPGGA,145027.000,4000.4390,N,10515.7085,W,2,07,1.84,1651.6,M,-20.6,M,0000,0000*6E
$GPGSV,3,1,09,23,86,137,43,16,57,057,36,09,56,311,32,51,43,183,40*78
$GPGSV,3,2,09,07,37,279,41,03,20,193,41,08,16,152,24,22,06,180,21*77
$GPGSV,3,3,09,30,06,267,*46
$GPGGA,145028.000,4000.4390,N,10515.7085,W,2,07,1.84,1651.6,M,-20.6,M,0000,0000*61
$GPGSV,3,1,09,23,86,137,43,16,57,057,36,09,56,311,32,51,43,183,40*78
$GPGSV,3,2,09,07,37,279,40,03,20,193,41,08,16,152,23,22,06,180,21*71
$GPGSV,3,3,09,30,06,267,*46
$GPGGA,145029.000,4000.4390,N,10515.7085,W,2,07,1.84,1651.6,M,-20.6,M,0000,0000*60
$GPGSV,3,1,09,23,86,137,42,16,57,057,36,09,56,311,32,51,43,183,40*79
$GPGSV,3,2,09,07,37,279,40,03,20,193,41,08,16,152,24,22,06,180,21*76
$GPGSV,3,3,09,30,06,267,*46
$GPGGA,145030.000,4000.4390,N,10515.7085,W,2,07,1.84,1651.6,M,-20.6,M,0000,0000*68
$GPGSV,3,1,09,23,86,137,42,16,57,057,35,09,56,311,32,51,43,183,40*7A
$GPGSV,3,2,09,07,37,279,39,03,20,193,41,08,16,152,25,22,06,180,21*79
$GPGSV,3,3,09,30,06,267,*46
$GPGGA,145031.000,4000.4390,N,10515.7085,W,2,07,1.84,1651.6,M,-20.6,M,0000,0000*69
$GPGSV,3,1,09,23,86,137,42,16,57,057,36,09,56,311,33,51,43,183,41*79
$GPGSV,3,2,09,07,37,279,39,03,20,193,42,08,16,152,24,22,06,180,20*7A
$GPGSV,3,3,09,30,06,267,*46
$GPGGA,145032.000,4000.4390,N,10515.7085,W,2,07,1.84,1651.6,M,-20.6,M,0000,0000*6A
$GPGSV,3,1,09,23,86,137,43,16,57,057,35,09,56,311,32,51,43,183,41*7A
$GPGSV,3,2,09,07,37,279,40,03,20,193,42,08,16,152,24,22,06,180,18*7F
$GPGSV,3,3,09,30,06,267,*46
$GPGGA,145033.000,4000.4390,N,10515.7085,W,2,07,1.84,1651.6,M,-20.6,M,0000,0000*6B
$GPGSV,3,1,09,23,86,137,43,16,57,057,35,09,56,311,31,51,43,183,41*79
$GPGSV,3,2,09,07,37,279,40,03,20,193,42,08,16,152,24,22,06,180,18*7F
$GPGSV,3,3,09,30,06,267,*46
$GPGGA,145034.000,4000.4390,N,10515.7085,W,2,07,1.84,1651.6,M,-20.6,M,0000,0000*6C
$GPGSV,3,1,09,23,86,137,43,16,57,057,35,09,56,311,32,51,43,183,42*79
$GPGSV,3,2,09,07,37,279,39,03,20,193,42,08,16,152,24,22,06,180,18*71
$GPGSV,3,3,09,30,06,267,*46
$GPGGA,145035.000,4000.4390,N,10515.7085,W,2,07,1.84,1651.6,M,-20.6,M,0000,0000*6D
$GPGSV,3,1,09,23,86,138,43,16,57,057,35,09,56,311,33,51,43,183,42*77
$GPGSV,3,2,09,07,37,279,38,03,20,193,42,08,16,152,24,22,06,180,18*70
$GPGSV,3,3,09,30,06,267,*46
$GPGGA,145036.000,4000.4390,N,10515.7085,W,2,07,1.84,1651.6,M,-20.6,M,0000,0000*6E
$GPGSV,3,1,09,23,86,138,43,16,57,057,36,09,56,311,33,51,43,183,42*74
$GPGSV,3,2,09,07,37,279,38,03,20,193,42,08,16,152,25,22,06,180,18*71
$GPGSV,3,3,09,30,06,267,*46
$GPGGA,145037.000,4000.4390,N,10515.7085,W,2,07,1.84,1651.6,M,-20.6,M,0000,0000*6F
$GPGSV,3,1,09,23,86,138,43,16,57,057,37,09,56,311,34,51,43,183,41*71
$GPGSV,3,2,09,07,37,279,37,03,20,193,42,08,16,152,26,22,06,180,18*7D
$GPGSV,3,3,09,30,06,267,*46
$GPGGA,145038.000,4000.4390,N,10515.7085,W,2,07,1.84,1651.6,M,-20.6,M,0000,0000*60
$GPGSV,3,1,09,23,86,138,43,16,57,057,37,09,56,311,34,51,43,183,41*71
$GPGSV,3,2,09,07,37,279,36,03,20,193,42,08,16,152,27,22,06,180,18*7D
$GPGSV,3,3,09,30,06,267,*46
$GPGGA,145039.000,4000.4390,N,10515.7085,W,2,07,1.84,1651.7,M,-20.6,M,0000,0000*60
$GPGSV,3,1,09,23,86,138,43,16,57,057,37,09,56,311,34,51,43,183,39*7E
$GPGSV,3,2,09,07,37,279,37,03,20,193,42,08,16,152,26,22,06,180,17*72
$GPGSV,3,3,09,30,06,267,*46
$GPGGA,145040.000,4000.4390,N,10515.7085,W,2,07,1.84,1651.7,M,-20.6,M,0000,0000*6E
$GPGSV,3,1,09,23,86,138,43,16,57,057,37,09,56,311,34,51,43,183,38*7F
$GPGSV,3,2,09,07,37,279,39,03,20,193,43,08,16,152,26,22,06,180,16*7C
$GPGSV,3,3,09,30,06,267,*46
$GPGGA,145041.000,4000.4390,N,10515.7085,W,2,07,1.84,1651.7,M,-20.6,M,0000,0000*6F
$GPGSV,3,1,09,23,86,138,43,16,57,057,37,09,56,311,34,51,43,183,37*70
$GPGSV,3,2,09,07,37,279,40,03,20,193,44,08,16,152,26,22,06,180,16*75
$GPGSV,3,3,09,30,06,267,*46
$GPGGA,145042.000,4000.4390,N,10515.7085,W,2,07,1.84,1651.6,M,-20.6,M,0000,0000*6D
$GPGSV,3,1,09,23,86,138,42,16,57,057,36,09,56,311,33,51,43,183,37*77
$GPGSV,3,2,09,07,37,279,41,03,20,193,44,08,16,152,25,30,07,267,*78
$GPGSV,3,3,09,22,06,180,16*48
$GPGGA,145043.000,4000.4390,N,10515.7085,W,2,07,1.84,1651.6,M,-20.6,M,0000,0000*6C
$GPGSV,3,1,09,23,86,138,42,16,57,057,35,09,56,311,33,51,43,183,37*74
$GPGSV,3,2,09,07,37,279,41,03,20,193,44,08,16,152,25,30,07,267,*78
$GPGSV,3,3,09,22,06,180,16*48
$GPGGA,145044.000,4000.4390,N,10515.7086,W,2,07,1.84,1651.6,M,-20.6,M,0000,0000*68
