$GPGGA,145050.000,4000.0043,N,10515.6857,W,2,09,0.94,1652.8,M,-20.6,M,0000,0000*62
$GPGSV,3,1,11,23,86,138,39,16,57,057,42,09,56,311,37,07,37,280,20*73
$GPGSV,3,2,11,27,28,119,34,26,28,047,31,03,20,193,25,08,16,152,27*77
$GPGSV,3,3,11,30,07,267,19,22,06,180,27,45,,,*7D
$PMTK001,220,3*30
$PGACK,33,0*6E
$GPGGA,145051.000,4000.0043,N,10515.6856,W,2,09,0.94,1652.8,M,-20.6,M,0000,0000*62
$GPGSV,3,1,11,23,86,138,39,16,57,057,41,09,56,311,38,07,37,280,36*78
$GPGSV,3,2,11,27,28,119,42,26,28,047,40,03,20,193,24,08,16,152,27*71
$GPGSV,3,3,11,30,07,267,20,22,06,180,28,45,,,*78
$GPGGA,145052.000,4000.0043,N,10515.6854,W,2,09,0.94,1652.8,M,-20.6,M,0000,0000*63
$GPGSV,3,1,11,23,86,138,39,16,57,057,41,09,56,311,38,07,37,280,35*7B
$GPGSV,3,2,11,27,28,119,41,26,27,047,40,03,20,193,25,08,16,152,26*7D
$GPGSV,3,3,11,30,07,267,20,22,06,180,23,45,,,*73
$GPGGA,145053.000,4000.0043,N,10515.6852,W,2,09,0.94,1652.8,M,-20.6,M,0000,0000*64
$GPGSV,3,1,11,23,86,138,38,16,57,057,40,09,56,311,38,07,37,280,37*79
$GPGSV,3,2,11,27,28,119,39,26,27,047,39,03,20,193,27,08,16,152,27*7F
$GPGSV,3,3,11,30,07,267,21,22,06,180,22,45,,,*73
$GPGGA,145054.000,4000.0042,N,10515.6850,W,2,09,0.94,1652.9,M,-20.6,M,0000,0000*61
$GPGSV,3,1,11,23,86,138,37,16,57,057,38,09,56,311,40,07,37,280,36*77
$GPGSV,3,2,11,27,28,119,39,26,27,047,40,03,20,193,34,08,16,152,28*7C
$GPGSV,3,3,11,30,07,267,23,22,06,180,29,45,,,*7A
$GPGGA,145055.000,4000.0040,N,10515.6850,W,2,09,0.94,1653.0,M,-20.6,M,0000,0000*6A
$GPGSV,3,1,11,23,86,138,35,16,57,057,39,09,56,311,38,07,37,280,27*7B
$GPGSV,3,2,11,27,28,119,38,26,27,047,41,03,20,193,33,08,16,152,35*77
$GPGSV,3,3,11,30,07,267,22,22,06,180,36,45,,,*75
$GPGGA,145056.000,4000.0039,N,10515.6849,W,2,09,0.94,1653.1,M,-20.6,M,0000,0000*6E
$GPGSV,3,1,11,23,86,138,34,16,57,057,40,09,56,311,37,07,37,280,27*7B
$GPGSV,3,2,11,27,28,119,38,26,27,047,41,03,20,193,31,08,16,152,34*74
$GPGSV,3,3,11,30,07,267,21,22,06,180,35,45,,,*75
$GPGGA,145057.000,4000.0039,N,10515.6846,W,2,09,0.94,1653.2,M,-20.6,M,0000,0000*63
$GPGSV,3,1,11,23,86,138,33,16,57,057,40,09,56,311,28,07,37,280,26*73
$GPGSV,3,2,11,27,28,119,37,26,27,047,30,03,20,193,29,08,16,152,33*73
$GPGSV,3,3,11,30,07,267,20,22,06,180,25,46,,,*76
$GPGGA,145058.000,4000.0038,N,10515.6847,W,2,09,0.94,1653.2,M,-20.6,M,0000,0000*6C
$GPGSV,3,1,11,23,86,138,33,16,57,057,40,09,56,311,28,07,37,280,25*70
$GPGSV,3,2,11,27,28,119,36,26,27,047,28,03,20,193,25,08,16,152,35*71
$GPGSV,3,3,11,30,07,267,19,22,06,180,25,46,,,*7C
$GPGGA,145059.000,4000.0039,N,10515.6846,W,2,09,0.94,1653.1,M,-20.6,M,0000,0000*6E
$GPGSV,3,1,11,23,86,138,35,16,57,057,39,09,56,311,29,07,37,280,24*78
$GPGSV,3,2,11,27,28,119,35,26,27,047,27,03,20,193,28,08,16,152,37*72
$GPGSV,3,3,11,30,07,267,19,22,06,180,26,46,,,*7F
$GPGGA,145100.000,4000.0040,N,10515.6846,W,2,09,0.94,1653.1,M,-20.6,M,0000,0000*6D
$GPGSV,3,1,11,23,86,138,43,16,57,057,39,09,56,311,30,07,37,280,26*73
$GPGSV,3,2,11,27,28,119,34,26,27,047,26,03,20,193,22,08,16,152,37*78
$GPGSV,3,3,11,30,07,267,19,22,06,180,24,46,,,*7D
$GPGGA,145101.000,4000.0040,N,10515.6847,W,2,09,0.94,1653.2,M,-20.6,M,0000,0000*6E
$GPGSV,3,1,11,23,86,138,43,16,57,057,39,09,56,311,29,07,37,280,26*7B
$GPGSV,3,2,11,27,28,119,35,26,27,047,26,03,20,193,26,08,16,152,37*7D
$GPGSV,3,3,11,30,07,267,20,22,06,180,24,46,,,*77
$GPGGA,145102.000,4000.0040,N,10515.6847,W,2,09,0.94,1653.2,M,-20.6,M,0000,0000*6D
$GPGSV,3,1,11,23,86,138,43,16,57,057,39,09,56,311,31,07,37,280,26*72
$GPGSV,3,2,11,27,28,119,36,26,27,047,25,03,20,193,18,08,16,152,38*7F
$GPGSV,3,3,11,30,07,267,19,22,06,180,25,46,,,*7C
$GPGGA,145103.000,4000.0040,N,10515.6847,W,2,09,0.94,1653.2,M,-20.6,M,0000,0000*6C
$GPGSV,3,1,11,23,86,138,43,16,57,057,39,09,56,311,31,07,37,280,26*72
$GPGSV,3,2,11,27,28,119,35,26,27,047,33,03,20,193,24,08,16,152,30*7C
$GPGSV,3,3,11,30,07,267,18,22,06,180,26,47,,,*7F
$GPGGA,145104.000,4000.0040,N,10515.6847,W,2,09,0.94,1653.2,M,-20.6,M,0000,0000*6B
$GPGSV,3,1,11,23,86,138,43,16,57,057,38,09,56,311,31,07,37,280,27*72
$GPGSV,3,2,11,27,28,119,35,26,27,047,31,03,20,192,24,08,16,152,31*7E
$GPGSV,3,3,11,30,07,267,18,22,06,180,25,47,,,*7C
$GPGGA,145105.000,4000.0040,N,10515.6847,W,2,09,0.94,1653.2,M,-20.6,M,0000,0000*6A
$GPGSV,3,1,11,23,86,138,43,16,57,057,38,09,56,311,31,07,37,280,28*7D
$GPGSV,3,2,11,27,28,119,35,26,27,047,29,03,20,192,34,08,16,152,32*75
$GPGSV,3,3,11,30,07,267,18,22,06,180,32,47,,,*7A
$GPGGA,145106.000,4000.0040,N,10515.6847,W,2,09,0.94,1653.2,M,-20.6,M,0000,0000*69
$GPGSV,3,1,11,23,86,138,43,16,57,057,37,09,56,311,30,07,37,280,28*73
$GPGSV,3,2,11,27,28,119,36,26,27,047,28,03,20,192,34,08,16,152,33*76
$GPGSV,3,3,11,30,07,267,18,22,06,180,32,47,,,*7A
$GPGGA,145107.000,4000.0042,N,10515.6846,W,2,09,0.94,1653.2,M,-20.6,M,0000,0000*6B
$GPGSV,3,1,11,23,86,138,43,16,57,057,37,09,56,311,30,07,37,280,26*7D
$GPGSV,3,2,11,27,28,119,35,26,27,047,28,03,20,192,34,08,16,152,34*72
$GPGSV,3,3,11,30,07,267,18,22,06,180,33,47,,,*7B
$GPGGA,145108.000,4000.0042,N,10515.6846,W,2,09,0.94,1653.2,M,-20.6,M,0000,0000*64
$GPGSV,3,1,11,23,86,138,44,16,57,057,37,09,56,311,30,07,37,280,25*79
$GPGSV,3,2,11,27,28,119,35,26,27,047,28,03,20,192,34,08,16,152,35*73
$GPGSV,3,3,11,30,07,267,17,22,06,180,34,47,,,*73
$GPGGA,145109.000,4000.0042,N,10515.6848,W,2,09,0.94,1653.3,M,-20.6,M,0000,0000*6A
$GPGSV,3,1,11,23,86,138,44,16,57,057,37,09,56,311,29,07,37,280,24*70
$GPGSV,3,2,11,27,28,119,35,26,27,047,29,03,20,192,35,08,16,151,35*70
$GPGSV,3,3,11,30,07,267,17,22,06,180,34,47,,,*73
$GPGGA,145110.000,4000.0042,N,10515.6849,W,2,09,0.94,1653.3,M,-20.6,M,0000,0000*63
$GPGSV,3,1,11,23,86,138,44,16,57,057,37,09,56,311,28,07,37,280,23*76
$GPGSV,3,2,11,27,28,119,33,26,27,047,29,03,20,192,35,08,16,151,36*75
$GPGSV,3,3,11,30,07,267,17,22,06,180,34,49,,,*7D
$GPGGA,145111.000,4000.0042,N,10515.6848,W,2,09,0.94,1653.3,M,-20.6,M,0000,0000*63
$GPGSV,3,1,11,23,86,138,44,16,57,057,36,09,56,311,35,07,37,280,24*7C
$GPGSV,3,2,11,27,28,119,33,26,27,047,28,03,20,192,35,08,16,151,36*74
$GPGSV,3,3,11,30,07,267,17,22,06,180,32,49,,,*7B
$GPGGA,145112.000,4000.0041,N,10515.6850,W,2,09,0.94,1653.3,M,-20.6,M,0000,0000*6A
$GPGSV,3,1,11,23,86,138,43,16,57,057,35,09,56,311,35,07,37,280,24*78
$GPGSV,3,2,11,27,28,119,32,26,27,047,28,03,20,192,35,08,16,151,35*76
$GPGSV,3,3,11,30,07,267,16,22,06,180,31,49,,,*79
$GPGGA,145113.000,4000.0041,N,10515.6851,W,2,09,0.94,1653.3,M,-20.6,M,0000,0000*6A
$GPGSV,3,1,11,23,86,138,43,16,57,057,35,09,56,311,36,07,37,280,25*7A
$GPGSV,3,2,11,27,28,119,34,26,27,047,28,03,20,192,35,08,16,151,28*7C
$GPGSV,3,3,11,30,07,267,16,22,06,180,31,49,,,*79
$GPGGA,145114.000,4000.0041,N,10515.6852,W,2,09,0.94,1653.3,M,-20.6,M,0000,0000*6E
$GPGSV,3,1,11,23,86,138,43,16,57,057,35,09,56,311,37,07,37,280,26*78
$GPGSV,3,2,11,27,28,119,35,26,27,047,29,03,20,192,35,08,16,151,29*7D
$GPGSV,3,3,11,30,07,267,16,22,06,180,31,49,,,*79
$GPGGA,145115.000,4000.0040,N,10515.6851,W,2,09,0.94,1653.4,M,-20.6,M,0000,0000*6A
$GPGSV,3,1,11,23,86,138,43,16,57,057,35,09,56,311,37,07,37,280,27*79
$GPGSV,3,2,11,27,28,119,35,26,27,047,29,03,20,192,35,08,16,151,28*7C
$GPGSV,3,3,11,30,07,267,17,22,06,180,32,49,,,*7B
$GPGGA,145116.000,4000.0039,N,10515.6852,W,2,09,0.94,1653.5,M,-20.6,M,0000,0000*65
$GPGSV,3,1,11,23,86,138,43,16,57,057,35,09,56,311,37,51,43,183,*7C
$GPGSV,3,2,11,07,37,280,26,27,28,119,36,26,27,047,30,03,20,192,35*7A
$GPGSV,3,3,11,08,16,151,28,30,07,267,17,22,06,180,32*46
$GPGGA,145117.000,4000.0039,N,10515.6853,W,2,09,0.94,1653.6,M,-20.6,M,0000,0000*66
$GPGSV,3,1,11,23,86,138,43,16,57,057,36,09,56,311,35,51,43,183,35*7B
$GPGSV,3,2,11,07,37,280,24,27,28,119,36,26,27,047,31,03,20,192,35*79
$GPGSV,3,3,11,08,16,151,30,30,07,267,17,22,06,180,32*4F
$GPGGA,145118.000,4000.0039,N,10515.6854,W,2,09,0.94,1653.7,M,-20.6,M,0000,0000*6F
$GPGSV,3,1,11,23,86,138,43,16,57,056,36,09,56,311,36,51,43,183,34*78
$GPGSV,3,2,11,07,37,280,23,27,28,119,36,26,27,047,31,03,20,192,34*7F
$GPGSV,3,3,11,08,16,151,30,30,07,267,18,22,06,180,32*40
$GPGGA,145119.000,4000.0040,N,10515.6855,W,2,09,0.94,1653.7,M,-20.6,M,0000,0000*61
$GPGSV,3,1,11,23,86,138,44,16,57,056,37,09,56,311,34,51,43,183,36*7E
$GPGSV,3,2,11,07,37,280,22,27,28,119,36,26,27,047,22,03,20,192,34*7C
$GPGSV,3,3,11,08,16,151,32,30,07,267,18,22,06,180,31*41
$GPGGA,145120.000,4000.0040,N,10515.6855,W,2,09,0.94,1653.7,M,-20.6,M,0000,0000*6B
$GPGSV,3,1,11,23,86,138,44,16,57,056,38,09,56,311,33,51,43,183,34*74
$GPGSV,3,2,11,07,37,280,20,27,28,119,37,26,27,047,21,03,20,192,33*7B
$GPGSV,3,3,11,08,16,151,33,30,07,267,18,22,06,180,32*43
$GPGGA,145121.000,4000.0041,N,10515.6855,W,2,09,0.94,1653.7,M,-20.6,M,0000,0000*6B
$GPGSV,3,1,11,23,86,138,44,16,57,056,38,09,56,311,32,51,43,183,34*75
$GPGSV,3,2,11,07,37,280,19,27,28,119,37,26,27,047,22,03,20,192,35*74
$GPGSV,3,3,11,08,16,151,33,30,07,267,19,22,06,180,30*40
$GPGGA,145122.000,4000.0041,N,10515.6855,W,2,09,0.94,1653.7,M,-20.6,M,0000,0000*68
$GPGSV,3,1,11,23,86,138,44,16,57,056,39,09,56,311,30,51,43,183,35*77
$GPGSV,3,2,11,07,37,280,20,27,28,119,37,26,27,047,22,03,20,192,28*72
$GPGSV,3,3,11,08,16,151,21,30,07,267,19,22,06,180,37*44
$GPGGA,145123.000,4000.0041,N,10515.6855,W,2,09,0.94,1653.7,M,-20.6,M,0000,0000*69
$GPGSV,3,1,11,23,86,138,43,16,57,056,39,09,56,311,31,51,43,183,35*71
$GPGSV,3,2,11,07,37,280,19,27,28,119,38,26,27,047,29,03,20,192,37*72
$GPGSV,3,3,11,08,16,151,28,30,07,267,19,22,06,180,35*4F
$GPGGA,145124.000,4000.0041,N,10515.6855,W,2,09,0.94,1653.7,M,-20.6,M,0000,0000*6E
$GPGSV,3,1,11,23,86,138,43,16,57,056,39,09,56,311,31,51,43,183,36*72
$GPGSV,3,2,11,07,37,280,20,27,28,119,37,26,27,047,29,03,20,192,36*76
$GPGSV,3,3,11,08,16,151,19,30,07,267,19,22,05,180,34*4F
$GPGGA,145125.000,4000.0041,N,10515.6855,W,2,09,0.94,1653.7,M,-20.6,M,0000,0000*6F
$GPGSV,3,1,11,23,85,139,43,16,57,056,40,09,56,311,29,51,43,183,36*77
$GPGSV,3,2,11,07,37,280,21,27,28,119,37,26,27,047,27,03,20,192,36*79
$GPGSV,3,3,11,08,16,151,20,30,07,267,18,22,05,180,35*45
$GPGGA,145126.000,4000.0041,N,10515.6855,W,2,09,0.94,1653.7,M,-20.6,M,0000,0000*6C
$GPGSV,3,1,11,23,85,139,43,16,57,056,40,09,56,311,28,51,43,183,36*76
$GPGSV,3,2,11,07,37,280,21,27,28,119,37,26,27,047,25,03,20,192,36*7B
$GPGSV,3,3,11,08,16,151,34,30,07,267,17,22,05,180,34*4E
$GPGGA,145127.000,4000.0041,N,10515.6855,W,2,08,1.01,1653.7,M,-20.6,M,0000,0000*61
$GPGSV,3,1,11,23,85,139,43,16,57,056,40,09,56,311,20,51,43,183,37*7F
$GPGSV,3,2,11,07,37,280,21,27,28,119,37,26,27,047,18,03,20,192,37*74
$GPGSV,3,3,11,08,16,151,34,30,07,267,16,22,05,180,34*4F
$GPGGA,145128.000,4000.0041,N,10515.6856,W,2,09,0.94,1653.7,M,-20.6,M,0000,0000*61
$GPGSV,3,1,11,23,85,139,43,16,57,056,40,09,56,311,21,51,43,183,37*7E
$GPGSV,3,2,11,07,37,280,21,27,28,119,37,26,27,047,19,03,20,192,36*74
$GPGSV,3,3,11,08,16,151,34,30,07,267,15,22,05,180,33*4B
$GPGGA,145129.000,4000.0041,N,10515.6856,W,2,09,1.08,1653.7,M,-20.6,M,0000,0000*64
$GPGSV,3,1,11,23,85,139,43,16,57,056,40,09,56,311,23,51,43,183,37*7C
$GPGSV,3,2,11,07,37,280,20,27,28,118,37,26,27,047,21,03,20,192,35*7C
$GPGSV,3,3,11,08,16,151,33,30,07,267,14,22,05,180,33*4D
$GPGGA,145130.000,4000.0041,N,10515.6856,W,2,09,1.08,1653.7,M,-20.6,M,0000,0000*6C
$GPGSV,3,1,11,23,85,139,43,16,57,056,41,09,56,311,23,51,43,183,37*7D
$GPGSV,3,2,11,07,37,280,22,27,28,118,37,26,27,047,20,03,20,192,35*7F
$GPGSV,3,3,11,08,16,151,33,30,07,267,15,22,05,180,34*4B
$GPGGA,145131.000,4000.0041,N,10515.6856,W,2,08,1.13,1653.7,M,-20.6,M,0000,0000*66
$GPGSV,3,1,11,23,85,139,44,16,57,056,41,09,56,311,22,51,43,183,37*7B
$GPGSV,3,2,11,07,37,280,29,27,28,118,37,26,27,047,20,03,20,192,36*77
$GPGSV,3,3,11,08,16,151,34,30,07,267,16,22,05,180,34*4F
$GPGGA,145132.000,4000.0041,N,10515.6856,W,2,08,1.13,1653.7,M,-20.6,M,0000,0000*65
$GPGSV,3,1,11,23,85,139,44,16,57,056,41,09,56,311,20,51,43,183,37*79
$GPGSV,3,2,11,07,37,280,29,27,28,118,38,26,27,047,20,03,20,192,36*78
$GPGSV,3,3,11,08,16,151,34,30,07,267,16,22,05,180,34*4F
$GPGGA,145133.000,4000.0041,N,10515.6856,W,2,08,1.13,1653.7,M,-20.6,M,0000,0000*64
$GPGSV,3,1,11,23,85,139,44,16,57,056,41,09,56,311,20,51,43,183,37*79
$GPGSV,3,2,11,07,37,280,28,27,28,118,38,26,27,047,21,03,20,192,37*79
$GPGSV,3,3,11,08,16,151,34,30,07,267,16,22,05,180,34*4F
$GPGGA,145134.000,4000.0041,N,10515.6856,W,2,08,1.13,1653.7,M,-20.6,M,0000,0000*63
$GPGSV,3,1,11,23,85,139,44,16,57,056,40,09,56,311,20,51,43,183,37*78
$GPGSV,3,2,11,07,37,280,27,27,28,118,38,26,27,047,21,03,20,192,37*76
$GPGSV,3,3,11,08,16,151,34,30,07,267,17,22,05,180,34*4E
$GPGGA,145135.000,4000.0041,N,10515.6856,W,2,09,1.08,1653.7,M,-20.6,M,0000,0000*69
$GPGSV,3,1,11,23,85,139,44,16,57,056,40,09,56,311,20,51,43,183,37*78
$GPGSV,3,2,11,07,37,280,28,27,28,118,38,26,27,047,22,03,20,192,37*7A
$GPGSV,3,3,11,08,16,151,33,30,07,267,17,22,05,180,34*49
$GPGGA,145136.000,4000.0041,N,10515.6856,W,2,09,1.08,1653.7,M,-20.6,M,0000,0000*6A
$GPGSV,3,1,11,23,85,139,44,16,57,056,40,09,56,311,21,51,43,183,37*79
$GPGSV,3,2,11,07,37,280,30,27,28,118,38,26,27,047,22,03,20,192,37*73
$GPGSV,3,3,11,08,16,151,33,30,07,267,17,22,05,180,34*49
$GPGGA,145137.000,4000.0041,N,10515.6856,W,2,09,1.08,1653.7,M,-20.6,M,0000,0000*6B
$GPGSV,3,1,11,23,85,139,44,16,57,056,40,09,56,311,21,51,43,183,37*79
$GPGSV,3,2,11,07,37,280,30,27,28,118,38,26,27,047,23,03,20,192,37*72
$GPGSV,3,3,11,08,16,151,33,30,07,267,17,22,05,180,34*49
$GPGGA,145138.000,4000.0041,N,10515.6856,W,2,09,1.08,1653.7,M,-20.6,M,0000,0000*64
$GPGSV,3,1,11,23,85,139,44,16,57,056,40,09,56,311,23,51,43,183,37*7B
$GPGSV,3,2,11,07,37,280,30,27,28,118,38,26,27,047,23,03,20,192,38*7D
$GPGSV,3,3,11,08,16,151,33,30,07,267,16,22,05,180,33*4F
$GPGGA,145139.000,4000.0041,N,10515.6856,W,2,08,1.13,1653.7,M,-20.6,M,0000,0000*6E
$GPGSV,3,1,11,23,85,139,43,16,57,056,40,09,56,311,21,51,43,183,36*7F
$GPGSV,3,2,11,07,37,280,28,27,28,118,37,26,27,047,23,03,20,192,37*74
$GPGSV,3,3,11,08,16,151,33,30,07,267,15,22,05,180,31*4E
$GPGGA,145140.000,4000.0041,N,10515.6856,W,2,09,1.08,1653.7,M,-20.6,M,0000,0000*6B
$GPGSV,3,1,11,23,85,139,43,16,57,056,40,09,56,311,22,51,43,183,35*7F
$GPGSV,3,2,11,07,37,280,21,27,28,118,37,26,27,047,23,03,20,192,37*7D
$GPGSV,3,3,11,08,16,151,33,30,07,267,15,22,05,180,21*4F
$GPGGA,145141.000,4000.0041,N,10515.6856,W,2,09,1.08,1653.7,M,-20.6,M,0000,0000*6A
$GPGSV,3,1,11,23,85,139,43,16,57,056,40,09,56,311,23,51,43,183,25*7F
$GPGSV,3,2,11,07,37,280,22,27,28,118,36,26,27,047,23,03,20,192,37*7F
$GPGSV,3,3,11,08,16,151,33,30,07,267,16,22,05,180,21*4C
$GPGGA,145142.000,4000.0041,N,10515.6856,W,2,09,1.08,1653.7,M,-20.6,M,0000,0000*69
$GPGSV,3,1,11,23,85,139,34,16,57,056,25,09,56,311,23,51,43,183,37*7F
$GPGSV,3,2,11,07,37,280,21,27,28,118,35,26,27,047,23,03,20,192,37*7F
$GPGSV,3,3,11,08,16,151,34,30,07,267,17,22,05,180,22*49
$GPGGA,145143.000,4000.0041,N,10515.6856,W,2,09,1.08,1653.7,M,-20.6,M,0000,0000*68
$GPGSV,3,1,11,23,85,139,34,16,57,056,37,09,56,311,35,51,43,183,30*7C
$GPGSV,3,2,11,07,37,280,23,27,28,118,34,26,27,047,22,03,20,192,35*7F
$GPGSV,3,3,11,08,16,151,34,30,07,267,16,22,05,180,23*49
$GPGGA,145144.000,4000.0041,N,10515.6856,W,2,09,1.08,1653.7,M,-20.6,M,0000,0000*6F
$GPGSV,3,1,11,23,85,139,43,16,57,056,37,09,56,311,34,51,43,183,32*7F
$GPGSV,3,2,11,07,37,280,23,27,28,118,35,26,27,047,23,03,20,192,34*7E
$GPGSV,3,3,11,08,16,151,35,30,07,267,17,22,05,180,24*4E
$GPGGA,145145.000,4000.0041,N,10515.6856,W,2,09,1.08,1653.7,M,-20.6,M,0000,0000*6E
$GPGSV,3,1,11,23,85,139,43,16,57,056,37,09,56,311,32,51,43,183,33*78
$GPGSV,3,2,11,07,38,280,24,27,28,118,34,26,27,047,24,03,20,192,36*72
$GPGSV,3,3,11,08,16,151,35,30,07,267,17,22,05,180,24*4E
$GPGGA,145146.000,4000.0042,N,10515.6856,W,2,09,1.08,1653.7,M,-20.6,M,0000,0000*6E
$GPGSV,3,1,11,23,85,139,43,16,57,056,37,09,56,311,20,51,43,183,34*7C
$GPGSV,3,2,11,07,38,280,25,27,28,118,35,26,27,047,23,03,20,192,37*74
$GPGSV,3,3,11,08,16,151,34,30,07,267,18,22,05,180,24*40
$GPGGA,145147.000,4000.0042,N,10515.6856,W,2,09,1.08,1653.7,M,-20.6,M,0000,0000*6F
$GPGSV,3,1,11,23,85,139,43,16,57,056,37,09,56,311,22,51,43,183,35*7F
$GPGSV,3,2,11,07,38,280,27,27,28,118,36,26,27,047,23,03,20,192,38*7A
$GPGSV,3,3,11,08,16,151,34,30,07,267,19,22,05,180,25*40
$GPGGA,145148.000,4000.0042,N,10515.6856,W,2,09,1.08,1653.7,M,-20.6,M,0000,0000*60
$GPGSV,3,1,11,23,85,139,43,16,57,056,37,09,56,311,24,51,43,183,35*79
$GPGSV,3,2,11,07,38,280,26,27,28,118,36,26,27,047,23,03,20,192,39*7A
$GPGSV,3,3,11,08,16,151,34,30,07,267,19,22,05,180,25*40
$GPGGA,145149.000,4000.0042,N,10515.6856,W,2,09,1.08,1653.7,M,-20.6,M,0000,0000*61
$GPGSV,3,1,11,23,85,139,43,16,57,056,37,09,56,311,24,51,43,183,36*7A
$GPGSV,3,2,11,07,38,280,25,27,28,118,35,26,27,047,24,03,20,192,39*7D
$GPGSV,3,3,11,08,16,151,34,30,07,267,19,22,05,180,26*43
$GPGGA,145150.000,4000.0042,N,10515.6856,W,2,09,1.08,1653.7,M,-20.6,M,0000,0000*69
$GPGSV,3,1,11,23,85,139,43,16,57,056,37,09,56,311,25,51,43,183,36*7B
$GPGSV,3,2,11,07,38,280,25,27,28,118,34,26,27,047,25,03,20,192,39*7D
$GPGSV,3,3,11,08,16,151,34,30,07,267,20,22,05,180,27*48
$GPGGA,145151.000,4000.0042,N,10515.6856,W,2,09,1.08,1653.7,M,-20.6,M,0000,0000*68
$GPGSV,3,1,11,23,85,139,43,16,57,056,37,09,56,311,26,51,43,183,36*78
$GPGSV,3,2,11,07,38,280,25,27,28,118,34,26,27,047,25,03,20,192,39*7D
$GPGSV,3,3,11,08,16,151,34,30,07,267,22,22,05,180,27*4A
$GPGGA,145152.000,4000.0042,N,10515.6856,W,2,09,1.08,1653.7,M,-20.6,M,0000,0000*6B
$GPGSV,3,1,11,23,85,139,43,16,57,056,37,09,56,311,27,51,43,183,36*79
$GPGSV,3,2,11,07,38,280,27,27,28,118,34,26,27,047,26,03,20,192,39*7C
$GPGSV,3,3,11,08,16,151,34,30,07,267,23,22,05,180,27*4B
$GPGGA,145153.000,4000.0042,N,10515.6856,W,2,09,1.08,1653.7,M,-20.6,M,0000,0000*6A
$GPGSV,3,1,11,23,85,139,43,16,57,056,36,09,56,311,26,51,43,183,36*79
$GPGSV,3,2,11,07,38,280,28,27,28,118,34,26,27,047,26,03,20,192,39*73
$GPGSV,3,3,11,08,16,151,34,30,07,267,23,22,05,180,27*4B
$GPGGA,145154.000,4000.0042,N,10515.6856,W,2,08,1.13,1653.7,M,-20.6,M,0000,0000*66
$GPGSV,3,1,11,23,85,139,43,16,56,056,35,09,56,311,18,51,43,183,36*76
$GPGSV,3,2,11,07,38,280,28,27,28,118,34,26,27,047,25,03,20,192,38*71
$GPGSV,3,3,11,08,16,151,34,30,07,267,23,22,05,180,27*4B
$GPGGA,145155.000,4000.0042,N,10515.6856,W,2,09,1.08,1653.7,M,-20.6,M,0000,0000*6C
$GPGSV,3,1,11,23,85,139,43,16,56,056,35,09,56,311,19,51,43,183,36*77
$GPGSV,3,2,11,07,38,280,28,27,28,118,34,26,27,047,24,03,20,192,38*70
$GPGSV,3,3,11,08,16,151,34,30,07,267,23,22,05,180,27*4B
$GPGGA,145156.000,4000.0042,N,10515.6856,W,2,09,1.08,1653.7,M,-20.6,M,0000,0000*6F
$GPGSV,3,1,11,23,85,139,43,16,56,056,35,09,56,311,19,51,43,183,36*77
$GPGSV,3,2,11,07,38,280,29,27,28,118,34,26,27,047,22,03,20,192,38*77
$GPGSV,3,3,11,08,16,151,34,30,07,267,23,22,05,180,27*4B
$GPGGA,145157.000,4000.0042,N,10515.6856,W,2,08,1.13,1653.7,M,-20.6,M,0000,0000*65
$GPGSV,3,1,11,23,85,139,43,16,56,056,36,09,56,311,18,51,43,183,36*75
$GPGSV,3,2,11,07,38,280,30,27,28,118,34,26,27,047,22,03,20,192,37*70
$GPGSV,3,3,11,08,16,151,34,30,07,267,22,22,05,180,26*4B
$GPGGA,145158.000,4000.0042,N,10515.6856,W,2,09,1.08,1653.7,M,-20.6,M,0000,0000*61
$GPGSV,3,1,11,23,85,139,43,16,56,056,36,09,56,311,19,51,43,183,36*74
$GPGSV,3,2,11,07,38,280,29,27,28,118,34,26,27,047,22,03,20,192,37*78
$GPGSV,3,3,11,08,16,151,35,30,07,267,21,22,05,180,27*48
$GPGGA,145159.000,4000.0042,N,10515.6856,W,2,09,1.08,1653.7,M,-20.6,M,0000,0000*60
$GPGSV,3,1,11,23,85,139,43,16,56,056,27,09,56,311,20,51,43,183,37*7F
$GPGSV,3,2,11,07,38,280,30,27,28,118,36,26,27,047,33,03,20,192,37*72
$GPGSV,3,3,11,08,16,151,33,30,07,267,22,22,05,180,27*4D
$GPGGA,145200.000,4000.0042,N,10515.6856,W,2,09,1.08,1653.8,M,-20.6,M,0000,0000*60
$GPGSV,3,1,11,23,85,139,43,16,56,056,39,09,56,311,29,51,43,183,36*78
$GPGSV,3,2,11,07,38,280,29,27,28,118,34,26,27,047,34,03,20,192,38*70
$GPGSV,3,3,11,08,16,151,34,30,07,267,21,22,05,180,27*49
$GPGGA,145201.000,4000.0042,N,10515.6856,W,2,09,1.08,1653.8,M,-20.6,M,0000,0000*61
$GPGSV,3,1,11,23,85,140,43,16,56,056,39,09,56,311,27,51,43,183,36*78
$GPGSV,3,2,11,07,38,280,29,27,28,118,33,26,27,047,35,03,20,192,38*76
$GPGSV,3,3,11,08,16,151,34,30,07,267,20,22,05,180,20*4F
$GPGGA,145202.000,4000.0042,N,10515.6856,W,2,09,1.08,1653.8,M,-20.6,M,0000,0000*62
$GPGSV,3,1,11,23,85,140,43,16,56,056,39,09,56,311,25,51,43,183,36*7A
$GPGSV,3,2,11,07,38,280,29,27,28,118,33,26,27,047,35,03,20,192,38*76
$GPGSV,3,3,11,08,16,151,34,30,07,267,19,22,05,180,21*44
$GPGGA,145203.000,4000.0042,N,10515.6856,W,2,09,1.08,1653.8,M,-20.6,M,0000,0000*63
$GPGSV,3,1,11,23,85,140,43,16,56,056,39,09,56,311,23,51,43,183,36*7C
$GPGSV,3,2,11,07,38,280,29,27,28,118,32,26,27,047,36,03,20,192,38*74
$GPGSV,3,3,11,08,16,151,35,30,07,267,18,22,05,180,22*47
$GPGGA,145204.000,4000.0042,N,10515.6856,W,2,09,1.08,1653.8,M,-20.6,M,0000,0000*64
$GPGSV,3,1,11,23,85,140,43,16,56,056,39,09,56,311,22,51,43,183,36*7D
$GPGSV,3,2,11,07,38,280,29,27,28,118,32,26,27,047,36,03,20,192,37*7B
$GPGSV,3,3,11,08,16,151,35,30,07,267,18,22,05,180,23*46
$GPGGA,145205.000,4000.0042,N,10515.6856,W,2,08,1.13,1653.8,M,-20.6,M,0000,0000*6E
$GPGSV,3,1,11,23,85,140,43,16,56,056,39,09,56,311,20,51,43,183,36*7F
$GPGSV,3,2,11,07,38,280,28,27,28,118,32,26,27,047,35,03,20,192,37*79
$GPGSV,3,3,11,08,16,151,35,30,07,267,18,22,05,180,24*41
$GPGGA,145206.000,4000.0042,N,10515.6856,W,2,09,1.08,1653.8,M,-20.6,M,0000,0000*66
$GPGSV,3,1,11,23,85,140,43,16,56,056,39,09,56,311,20,51,43,183,36*7F
$GPGSV,3,2,11,07,38,280,27,27,28,118,33,26,27,047,35,03,20,192,37*77
$GPGSV,3,3,11,08,16,151,36,30,07,267,18,22,05,180,24*42
$GPGGA,145207.000,4000.0042,N,10515.6856,W,2,09,1.08,1653.8,M,-20.6,M,0000,0000*67
$GPGSV,3,1,11,23,85,140,43,16,56,056,39,09,56,311,20,51,43,183,36*7F
$GPGSV,3,2,11,07,38,280,26,27,28,118,33,26,27,047,35,03,20,192,36*77
$GPGSV,3,3,11,08,16,151,36,30,07,267,17,22,05,180,23*4A
$GPGGA,145208.000,4000.0042,N,10515.6856,W,2,09,1.08,1653.8,M,-20.6,M,0000,0000*68
$GPGSV,3,1,11,23,85,140,43,16,56,056,39,09,56,311,20,51,43,183,36*7F
$GPGSV,3,2,11,07,38,280,25,27,28,118,33,26,27,047,35,03,20,192,36*74
$GPGSV,3,3,11,08,16,151,36,30,07,267,17,22,05,180,24*4D
$GPGGA,145209.000,4000.0042,N,10515.6856,W,2,09,1.07,1653.8,M,-20.6,M,0000,0000*66
$GPGSV,3,1,11,23,85,140,43,16,56,056,39,09,56,311,20,51,43,183,36*7F
$GPGSV,3,2,11,07,38,280,25,27,28,118,33,26,27,047,36,03,20,192,35*74
$GPGSV,3,3,11,08,16,151,36,30,07,267,16,22,05,180,24*4C
$GPGGA,145210.000,4000.0042,N,10515.6856,W,2,09,1.08,1653.8,M,-20.6,M,0000,0000*61
$GPGSV,3,1,11,23,85,140,43,16,56,056,39,09,56,311,20,51,43,183,36*7F
$GPGSV,3,2,11,07,38,280,26,27,28,118,33,26,27,047,36,03,20,192,35*77
$GPGSV,3,3,11,08,16,151,36,30,07,267,16,22,05,180,24*4C
$GPGGA,145211.000,4000.0042,N,10515.6856,W,2,09,1.07,1653.8,M,-20.6,M,0000,0000*6F
$GPGSV,3,1,11,23,85,140,43,16,56,056,39,09,56,311,20,51,43,183,36*7F
$GPGSV,3,2,11,07,38,280,24,27,28,118,33,26,27,047,36,03,20,192,35*75
$GPGSV,3,3,11,08,16,151,36,30,07,267,16,22,05,180,25*4D
$GPGGA,145212.000,4000.0042,N,10515.6856,W,2,09,1.08,1653.8,M,-20.6,M,0000,0000*63
$GPGSV,3,1,11,23,85,140,43,16,56,056,39,09,56,311,21,51,43,183,37*7F
$GPGSV,3,2,11,07,38,280,17,27,28,118,32,26,27,047,36,03,20,192,35*74
$GPGSV,3,3,11,08,16,151,37,30,07,267,16,22,05,180,27*4E
$GPGGA,145213.000,4000.0042,N,10515.6856,W,2,09,1.08,1653.8,M,-20.6,M,0000,0000*62
$GPGSV,3,1,11,23,85,140,43,16,56,056,38,09,56,311,22,51,43,183,38*72
$GPGSV,3,2,11,07,38,280,18,27,28,118,32,26,27,047,34,03,20,192,34*78
$GPGSV,3,3,11,08,16,151,37,30,07,267,16,22,05,180,28*41
$GPGGA,145214.000,4000.0042,N,10515.6856,W,2,09,1.07,1653.8,M,-20.6,M,0000,0000*6A
$GPGSV,3,1,11,23,85,140,43,16,56,056,38,09,56,311,24,51,43,183,38*74
$GPGSV,3,2,11,07,38,280,20,27,28,118,31,26,27,047,34,03,20,192,33*77
$GPGSV,3,3,11,08,16,151,37,30,07,267,16,22,05,180,28*41
$GPGGA,145215.000,4000.0042,N,10515.6856,W,2,09,1.08,1653.8,M,-20.6,M,0000,0000*64
$GPGSV,3,1,11,23,85,140,43,16,56,056,38,09,56,311,24,51,43,183,38*74
$GPGSV,3,2,11,07,38,280,22,27,28,118,32,26,27,047,33,03,20,192,31*73
$GPGSV,3,3,11,08,16,151,36,30,07,267,16,22,05,180,29*41
$GPGGA,145216.000,4000.0042,N,10515.6856,W,2,09,1.07,1653.8,M,-20.6,M,0000,0000*68
$GPGSV,3,1,11,23,85,140,43,16,56,056,38,09,56,311,25,51,43,183,38*75
$GPGSV,3,2,11,07,38,280,24,27,28,118,33,26,27,047,33,03,20,192,32*77
$GPGSV,3,3,11,08,16,151,35,30,07,267,17,22,05,180,29*43
$GPGGA,145217.000,4000.0042,N,10515.6856,W,2,09,1.07,1653.8,M,-20.6,M,0000,0000*69
$GPGSV,3,1,11,23,85,140,43,16,56,056,38,09,56,311,25,51,43,183,38*75
$GPGSV,3,2,11,07,38,280,25,27,28,118,34,26,27,047,33,03,20,192,32*71
$GPGSV,3,3,11,08,16,151,34,30,07,267,18,22,05,180,27*43
$GPGGA,145218.000,4000.0042,N,10515.6856,W,2,09,1.07,1653.8,M,-20.6,M,0000,0000*66
$GPGSV,3,1,11,23,85,140,43,16,56,056,39,09,56,311,25,51,43,183,37*7B
$GPGSV,3,2,11,07,38,280,24,27,28,118,35,26,27,047,31,03,20,192,33*72
$GPGSV,3,3,11,08,16,151,34,30,07,267,18,22,05,180,25*41
$GPGGA,145219.000,4000.0042,N,10515.6856,W,2,09,1.07,1653.8,M,-20.6,M,0000,0000*67
$GPGSV,3,1,11,23,85,140,43,16,56,056,39,09,56,311,25,51,43,183,27*7A
$GPGSV,3,2,11,07,38,280,23,27,28,118,35,26,27,047,24,03,20,192,33*71
$GPGSV,3,3,11,08,16,151,34,30,07,267,18,22,05,180,24*40
$GPGGA,145220.000,4000.0042,N,10515.6856,W,2,09,1.08,1653.8,M,-20.6,M,0000,0000*62
$GPGSV,3,1,11,23,85,140,43,16,56,056,39,09,56,311,25,51,43,183,27*7A
$GPGSV,3,2,11,07,38,280,23,27,28,118,35,26,27,047,23,03,20,192,33*76
$GPGSV,3,3,11,08,16,151,34,30,07,267,18,22,05,180,22*46
$GPGGA,145221.000,4000.0042,N,10515.6856,W,2,09,1.07,1653.8,M,-20.6,M,0000,0000*6C
$GPGSV,3,1,11,23,85,140,43,16,56,056,38,09,56,311,24,51,43,183,27*7A
$GPGSV,3,2,11,07,38,280,23,27,28,118,34,26,27,047,30,03,20,192,34*72
$GPGSV,3,3,11,08,16,151,34,30,07,267,18,22,05,180,21*45
$GPGGA,145222.000,4000.0042,N,10515.6856,W,2,08,1.12,1653.8,M,-20.6,M,0000,0000*6A
$GPGSV,3,1,11,23,85,140,43,16,56,056,38,09,56,311,17,51,43,183,28*75
$GPGSV,3,2,11,07,38,280,23,27,28,118,34,26,27,047,30,03,20,192,34*72
$GPGSV,3,3,11,08,16,151,34,30,07,267,18,22,05,180,20*44
$GPGGA,145223.000,4000.0042,N,10515.6856,W,2,08,1.12,1653.8,M,-20.6,M,0000,0000*6B
$GPGSV,3,1,11,23,85,140,43,16,56,056,39,09,56,311,17,51,43,183,29*75
$GPGSV,3,2,11,07,38,280,22,27,28,118,34,26,27,047,30,03,20,192,33*74
$GPGSV,3,3,11,08,16,151,34,30,07,267,17,22,05,180,21*4A
$GPGGA,145224.000,4000.0042,N,10515.6856,W,2,08,1.12,1653.8,M,-20.6,M,0000,0000*6C
$GPGSV,3,1,11,23,85,140,43,16,56,056,40,09,56,311,18,51,43,183,29*74
$GPGSV,3,2,11,07,38,280,19,27,28,118,34,26,27,047,21,03,20,192,32*7D
$GPGSV,3,3,11,08,16,151,34,30,07,267,17,22,05,180,20*4B
$GPGGA,145225.000,4000.0042,N,10515.6856,W,2,08,1.12,1653.8,M,-20.6,M,0000,0000*6D
$GPGSV,3,1,11,23,85,140,43,16,56,056,41,09,56,311,19,51,43,183,29*74
$GPGSV,3,2,11,07,38,280,19,27,28,118,34,26,27,047,21,03,20,192,32*7D
$GPGSV,3,3,11,08,16,151,33,30,07,267,17,22,05,180,21*4D
$GPGGA,145226.000,4000.0042,N,10515.6856,W,2,09,1.07,1653.8,M,-20.6,M,0000,0000*6B
$GPGSV,3,1,11,23,85,140,43,16,56,056,42,09,56,311,20,51,43,183,29*7D
$GPGSV,3,2,11,07,38,280,19,27,28,118,32,26,27,047,22,03,20,192,32*78
$GPGSV,3,3,11,08,16,151,33,30,07,267,17,22,05,180,21*4D
$GPGGA,145227.000,4000.0042,N,10515.6856,W,2,09,1.07,1653.8,M,-20.6,M,0000,0000*6A
$GPGSV,3,1,11,23,85,140,43,16,56,056,42,09,56,311,22,51,43,183,29*7F
$GPGSV,3,2,11,07,38,280,22,27,28,118,32,26,27,047,33,03,20,192,33*71
$GPGSV,3,3,11,08,16,151,34,30,07,267,18,22,05,180,23*47
$GPGGA,145228.000,4000.0042,N,10515.6856,W,2,09,1.07,1653.8,M,-20.6,M,0000,0000*65
$GPGSV,3,1,11,23,85,140,43,16,56,056,41,09,56,311,21,51,43,183,29*7F
$GPGSV,3,2,11,07,38,280,22,27,28,118,32,26,27,047,32,03,20,192,32*71
$GPGSV,3,3,11,08,16,151,25,30,07,267,18,22,05,180,24*40
$GPGGA,145229.000,4000.0042,N,10515.6856,W,2,09,1.07,1653.8,M,-20.6,M,0000,0000*64
$GPGSV,3,1,11,23,85,140,43,16,56,056,41,09,56,311,22,51,43,183,30*74
$GPGSV,3,2,11,07,38,280,15,27,28,118,33,26,27,047,32,03,20,192,32*74
$GPGSV,3,3,11,08,16,151,33,30,07,267,18,22,05,180,24*47
$GPGGA,145230.000,4000.0042,N,10515.6856,W,2,08,1.12,1653.8,M,-20.6,M,0000,0000*69
$GPGSV,3,1,11,23,85,140,43,16,56,056,40,09,56,311,22,51,43,183,31*74
$GPGSV,3,2,11,07,38,280,25,27,28,118,34,26,27,047,33,03,20,192,33*70
$GPGSV,3,3,11,08,16,151,34,30,07,267,18,22,05,180,35*40
$GPGGA,145231.000,4000.0042,N,10515.6856,W,2,09,1.07,1653.8,M,-20.6,M,0000,0000*6D
$GPGSV,3,1,11,23,85,140,43,16,56,056,41,09,56,311,22,51,43,183,31*75
$GPGSV,3,2,11,07,38,280,25,27,28,118,34,26,27,047,33,03,20,192,33*70
$GPGSV,3,3,11,08,16,151,34,30,07,267,19,22,05,180,33*47
$GPGGA,145232.000,4000.0042,N,10515.6856,W,2,09,1.07,1653.8,M,-20.6,M,0000,0000*6E
$GPGSV,3,1,11,23,85,140,43,16,56,056,42,09,56,311,21,51,43,183,30*74
$GPGSV,3,2,11,07,38,280,24,27,28,118,33,26,27,047,32,03,20,192,33*77
$GPGSV,3,3,11,08,16,151,35,30,07,267,20,22,05,180,26*48
$GPGGA,145233.000,4000.0042,N,10515.6856,W,2,08,1.12,1653.8,M,-20.6,M,0000,0000*6A
$GPGSV,3,1,11,23,85,140,43,16,56,056,42,09,56,311,20,51,43,183,30*75
$GPGSV,3,2,11,07,38,280,24,27,28,118,34,26,27,047,32,03,20,192,32*71
$GPGSV,3,3,11,08,16,151,36,30,07,267,21,22,05,180,25*49
$GPGGA,145234.000,4000.0042,N,10515.6856,W,2,08,1.12,1653.8,M,-20.6,M,0000,0000*6D
$GPGSV,3,1,11,23,85,140,43,16,56,056,42,09,56,311,21,51,43,183,30*74
$GPGSV,3,2,11,07,38,280,22,27,28,118,35,26,27,047,33,03,20,192,31*74
$GPGSV,3,3,11,08,16,151,35,30,07,267,21,22,05,180,25*4A
$GPGGA,145235.000,4000.0042,N,10515.6856,W,2,09,1.07,1653.8,M,-20.6,M,0000,0000*69
$GPGSV,3,1,11,23,85,140,43,16,56,056,42,09,56,311,21,51,43,183,31*75
$GPGSV,3,2,11,07,38,280,22,27,28,118,36,26,27,047,33,03,20,192,30*76
$GPGSV,3,3,11,08,16,151,34,30,07,267,21,22,05,180,25*4B
$GPGGA,145236.000,4000.0042,N,10515.6856,W,2,08,1.12,1653.8,M,-20.6,M,0000,0000*6F
$GPGSV,3,1,11,23,85,140,43,16,56,056,43,09,56,311,21,51,43,183,32*77
$GPGSV,3,2,11,07,38,280,21,27,28,118,37,26,27,047,32,03,20,192,29*7D
$GPGSV,3,3,11,08,16,151,33,30,07,267,20,22,05,180,23*4B
$GPGGA,145237.000,4000.0042,N,10515.6856,W,2,08,1.12,1653.8,M,-20.6,M,0000,0000*6E
$GPGSV,3,1,11,23,85,140,43,16,56,056,43,09,56,311,20,51,43,183,33*77
$GPGSV,3,2,11,07,38,280,22,27,28,118,37,26,27,047,31,03,20,192,29*7D
$GPGSV,3,3,11,08,16,151,33,30,07,267,22,22,05,180,23*49
$GPGGA,145238.000,4000.0042,N,10515.6856,W,2,08,1.12,1653.8,M,-20.6,M,0000,0000*61
$GPGSV,3,1,11,23,85,140,43,16,56,056,43,09,56,311,19,51,43,183,33*7D
$GPGSV,3,2,11,07,38,280,21,27,28,118,38,26,27,047,31,03,20,192,27*7F
$GPGSV,3,3,11,08,16,151,32,30,07,267,21,22,05,180,23*4B
$GPGGA,145239.000,4000.0042,N,10515.6856,W,2,08,1.12,1653.8,M,-20.6,M,0000,0000*60
$GPGSV,3,1,11,23,85,140,43,16,56,056,43,09,56,311,19,51,43,183,32*7C
$GPGSV,3,2,11,07,38,280,21,27,28,118,38,26,27,047,31,03,20,192,27*7F
$GPGSV,3,3,11,08,16,151,32,30,07,267,21,22,05,180,22*4A
$GPGGA,145240.000,4000.0042,N,10515.6856,W,2,09,1.07,1653.8,M,-20.6,M,0000,0000*6B
$GPGSV,3,1,11,23,85,140,43,16,56,056,43,09,56,311,20,51,43,183,32*76
$GPGSV,3,2,11,07,38,280,21,27,28,118,38,26,27,047,31,03,20,192,29*71
$GPGSV,3,3,11,08,16,151,33,30,07,267,22,22,05,180,21*4B
$GPGGA,145241.000,4000.0042,N,10515.6856,W,2,09,1.07,1653.8,M,-20.6,M,0000,0000*6A
$GPGSV,3,1,11,23,85,140,43,16,56,056,43,09,56,311,22,51,43,183,32*74
$GPGSV,3,2,11,07,38,280,21,27,28,118,38,26,27,047,31,03,20,192,29*71
$GPGSV,3,3,11,08,16,151,33,30,07,267,21,22,05,180,20*49
$GPGGA,145242.000,4000.0042,N,10515.6856,W,2,09,1.07,1653.8,M,-20.6,M,0000,0000*69
$GPGSV,3,1,11,23,85,140,43,16,56,056,42,09,56,311,22,51,43,183,32*75
$GPGSV,3,2,11,07,38,280,20,27,28,118,39,26,27,047,33,03,20,192,28*72
$GPGSV,3,3,11,08,16,151,33,30,07,267,22,22,05,180,21*4B
$GPGGA,145243.000,4000.0042,N,10515.6856,W,2,08,1.12,1653.8,M,-20.6,M,0000,0000*6D
$GPGSV,3,1,11,23,85,140,43,16,56,056,42,09,56,311,22,51,43,183,33*74
$GPGSV,3,2,11,07,38,280,21,27,28,118,39,26,27,047,32,03,20,192,28*72
$GPGSV,3,3,11,08,16,151,34,30,07,267,22,22,05,180,21*4C
$GPGGA,145244.000,4000.0042,N,10515.6856,W,2,09,1.07,1653.8,M,-20.6,M,0000,0000*6F
$GPGSV,3,1,11,23,85,140,43,16,56,056,42,09,56,311,22,51,43,183,33*74
$GPGSV,3,2,11,07,38,280,22,27,28,118,39,26,27,047,31,03,20,192,29*73
$GPGSV,3,3,11,08,16,151,35,30,07,267,21,22,05,180,20*4F
$GPGGA,145245.000,4000.0042,N,10515.6856,W,2,09,1.07,1653.8,M,-20.6,M,0000,0000*6E
$GPGSV,3,1,11,23,85,140,43,16,56,056,42,09,56,311,23,51,43,183,33*75
$GPGSV,3,2,11,07,38,280,22,27,28,118,40,26,27,047,32,03,20,192,30*76
$GPGSV,3,3,11,08,16,151,35,30,07,267,21,22,05,180,20*4F
$GPGGA,145246.000,4000.0042,N,10515.6856,W,2,09,1.07,1653.8,M,-20.6,M,0000,0000*6D
$GPGSV,3,1,11,23,85,140,43,16,56,056,42,09,56,311,22,51,43,183,32*75
$GPGSV,3,2,11,07,38,280,21,27,28,118,39,26,27,047,30,03,20,192,30*79
$GPGSV,3,3,11,08,16,151,34,30,07,267,21,22,05,180,20*4E
$GPGGA,145247.000,4000.0042,N,10515.6856,W,2,09,1.07,1653.8,M,-20.6,M,0000,0000*6C
$GPGSV,3,1,11,23,85,140,43,16,56,056,41,09,56,311,23,51,43,183,33*76
$GPGSV,3,2,11,07,38,280,21,27,28,118,40,26,27,047,30,03,20,192,30*77
$GPGSV,3,3,11,08,16,151,35,30,07,267,22,22,05,180,20*4C
$GPGGA,145248.000,4000.0042,N,10515.6856,W,2,09,1.07,1653.8,M,-20.6,M,0000,0000*63
$GPGSV,3,1,11,23,85,140,43,16,56,056,41,09,56,311,25,51,43,183,32*71
$GPGSV,3,2,11,07,38,280,20,27,28,118,40,26,27,047,31,03,20,192,29*7F
$GPGSV,3,3,11,08,16,151,36,30,07,267,22,22,05,180,21*4E
$GPGGA,145249.000,4000.0042,N,10515.6856,W,2,09,1.07,1653.8,M,-20.6,M,0000,0000*62
$GPGSV,3,1,11,23,85,140,43,16,56,056,41,09,56,311,26,51,43,183,31*71
$GPGSV,3,2,11,07,38,280,21,27,28,118,40,26,27,047,32,03,20,192,28*7C
$GPGSV,3,3,11,08,16,151,37,30,07,267,23,22,05,180,29*46
$GPGGA,145250.000,4000.0042,N,10515.6856,W,2,09,1.07,1653.8,M,-20.6,M,0000,0000*6A
$GPGSV,3,1,11,23,85,140,43,16,56,056,41,09,56,311,25,51,43,183,31*72
$GPGSV,3,2,11,07,38,280,29,27,28,118,39,26,27,047,31,03,20,192,27*76
$GPGSV,3,3,11,08,16,151,35,30,07,267,22,22,05,180,28*44
$GPGGA,145251.000,4000.0042,N,10515.6856,W,2,09,1.07,1653.8,M,-20.6,M,0000,0000*6B
$GPGSV,3,1,11,23,85,140,43,16,56,056,41,09,56,311,24,51,43,183,32*70
$GPGSV,3,2,11,07,38,280,30,27,28,118,38,26,27,047,33,03,20,192,29*73
$GPGSV,3,3,11,08,16,151,34,30,07,267,21,22,05,180,20*4E
$GPGGA,145252.000,4000.0042,N,10515.6856,W,2,09,1.07,1653.8,M,-20.6,M,0000,0000*68
$GPGSV,3,1,11,23,85,140,42,16,56,056,41,09,56,311,24,51,43,183,25*77
$GPGSV,3,2,11,07,38,280,30,27,28,118,38,26,27,047,32,03,20,192,38*72
$GPGSV,3,3,11,08,16,151,27,30,07,267,20,22,05,180,21*4C
$GPGGA,145253.000,4000.0042,N,10515.6855,W,2,09,1.07,1653.8,M,-20.6,M,0000,0000*6A
$GPGSV,3,1,11,23,85,140,41,16,56,056,41,09,56,311,25,51,43,183,32*73
$GPGSV,3,2,11,07,38,280,31,27,28,118,37,26,27,047,31,03,19,192,38*75
$GPGSV,3,3,11,08,16,151,25,30,07,267,19,22,05,180,33*47
$GPGGA,145254.000,4000.0042,N,10515.6855,W,2,09,1.07,1653.9,M,-20.6,M,0000,0000*6C
$GPGSV,3,1,11,23,85,140,41,16,56,056,41,09,56,311,34,51,43,183,32*73
$GPGSV,3,2,11,07,38,280,33,27,28,118,38,26,27,047,31,03,19,192,38*78
$GPGSV,3,3,11,08,16,151,32,30,07,267,18,22,05,180,33*40
$GPGGA,145255.000,4000.0042,N,10515.6855,W,2,09,1.07,1653.9,M,-20.6,M,0000,0000*6D
$GPGSV,3,1,11,23,85,140,41,16,56,056,40,09,56,311,35,51,43,183,33*72
$GPGSV,3,2,11,07,38,280,32,27,28,118,37,26,27,047,38,03,19,192,39*7E
$GPGSV,3,3,11,08,16,151,25,30,07,267,17,22,05,180,21*4A
$GPGGA,145256.000,4000.0042,N,10515.6855,W,2,09,1.07,1653.9,M,-20.6,M,0000,0000*6E
$GPGSV,3,1,11,23,85,140,41,16,56,056,40,09,56,311,35,51,43,183,33*72
$GPGSV,3,2,11,07,38,280,31,27,28,118,36,26,27,047,38,03,19,192,39*7C
$GPGSV,3,3,11,08,16,151,23,30,07,267,17,22,05,180,22*4F
$GPGGA,145257.000,4000.0042,N,10515.6855,W,2,09,1.07,1653.9,M,-20.6,M,0000,0000*6F
$GPGSV,3,1,11,23,85,140,41,16,56,056,40,09,56,311,34,51,43,183,32*72
$GPGSV,3,2,11,07,38,280,30,27,28,118,36,26,27,047,38,03,19,192,39*7D
$GPGSV,3,3,11,08,16,151,30,30,07,267,17,22,05,180,22*4D
$GPGGA,145258.000,4000.0042,N,10515.6855,W,2,09,1.07,1653.9,M,-20.6,M,0000,0000*60
$GPGSV,3,1,11,23,85,140,41,16,56,056,40,09,56,311,33,51,43,183,32*75
$GPGSV,3,2,11,07,38,280,20,27,28,118,35,26,27,047,38,03,19,192,39*7F
$GPGSV,3,3,11,08,17,151,30,30,07,267,17,22,05,180,23*4D
$GPGGA,145259.000,4000.0042,N,10515.6855,W,2,09,1.07,1653.9,M,-20.6,M,0000,0000*61
$GPGSV,3,1,11,23,85,140,42,09,57,311,34,16,56,056,40,51,43,183,32*70
$GPGSV,3,2,11,07,38,280,30,27,28,118,36,26,27,047,38,03,19,192,39*7D
$GPGSV,3,3,11,08,17,151,22,30,07,267,18,22,05,180,25*47
$GPGGA,145300.000,4000.0042,N,10515.6855,W,2,09,1.07,1653.9,M,-20.6,M,0000,0000*6C
$GPGSV,3,1,11,23,85,140,43,09,57,311,34,16,56,056,40,51,43,183,32*71
$GPGSV,3,2,11,07,38,280,29,27,28,118,35,26,27,047,38,03,19,192,38*77
$GPGSV,3,3,11,08,17,151,30,30,07,267,18,22,05,180,26*47
$GPGGA,145301.000,4000.0042,N,10515.6855,W,2,09,1.07,1653.9,M,-20.6,M,0000,0000*6D
$GPGSV,3,1,11,23,85,140,29,09,57,311,35,16,56,056,39,51,43,183,33*73
$GPGSV,3,2,11,07,38,280,29,27,28,118,35,26,27,047,37,03,19,192,37*77
$GPGSV,3,3,11,08,17,151,31,30,07,267,18,22,05,180,27*47
$GPGGA,145302.000,4000.0042,N,10515.6855,W,2,09,1.07,1653.9,M,-20.6,M,0000,0000*6E
$GPGSV,3,1,11,23,85,140,42,09,57,311,33,16,56,056,39,51,43,183,34*7F
$GPGSV,3,2,11,07,38,280,31,27,28,118,36,26,27,047,29,03,19,192,37*72
$GPGSV,3,3,11,08,17,151,33,30,07,267,18,22,05,180,26*44
$GPGGA,145303.000,4000.0042,N,10515.6855,W,2,09,1.07,1653.9,M,-20.6,M,0000,0000*6F
$GPGSV,3,1,11,23,85,140,42,09,57,311,32,16,56,056,40,51,43,183,34*70
$GPGSV,3,2,11,07,38,280,30,27,28,118,36,26,27,047,30,03,19,192,37*7B
$GPGSV,3,3,11,08,17,151,34,30,07,267,18,22,05,180,27*42
$GPGGA,145304.000,4000.0042,N,10515.6855,W,2,09,1.07,1653.9,M,-20.6,M,0000,0000*68
$GPGSV,3,1,11,23,85,140,42,09,57,311,31,16,56,056,40,51,43,183,34*73
$GPGSV,3,2,11,07,38,280,29,27,28,118,37,26,27,047,29,03,19,192,37*7A
$GPGSV,3,3,11,08,17,151,35,30,07,267,18,22,05,180,29*4D
$GPGGA,145305.000,4000.0042,N,10515.6855,W,2,09,1.07,1653.9,M,-20.6,M,0000,0000*69
$GPGSV,3,1,11,23,85,140,42,09,57,311,30,16,56,056,40,51,43,183,34*72
$GPGSV,3,2,11,07,38,280,28,27,28,118,38,26,27,047,28,03,19,192,37*75
$GPGSV,3,3,11,08,17,151,35,30,07,267,17,22,05,180,30*4A
$GPGGA,145306.000,4000.0042,N,10515.6855,W,2,09,1.07,1653.9,M,-20.6,M,0000,0000*6A
$GPGSV,3,1,11,23,85,140,42,09,57,311,30,16,56,056,40,51,43,183,34*72
$GPGSV,3,2,11,07,38,280,27,27,28,118,38,26,27,047,28,03,19,192,36*7B
$GPGSV,3,3,11,08,17,151,35,30,07,267,17,22,05,180,22*49
$GPGGA,145307.000,4000.0042,N,10515.6855,W,2,09,1.07,1653.9,M,-20.6,M,0000,0000*6B
$GPGSV,3,1,11,23,85,140,42,09,57,311,30,16,56,056,40,51,43,183,34*72
$GPGSV,3,2,11,07,38,280,26,27,28,118,38,26,27,047,27,03,19,192,36*75
$GPGSV,3,3,11,08,17,151,35,30,07,267,17,22,05,180,24*4F
$GPGGA,145308.000,4000.0042,N,10515.6855,W,2,09,1.07,1653.9,M,-20.6,M,0000,0000*64
$GPGSV,3,1,11,23,85,140,42,09,57,311,31,16,56,056,39,51,43,183,35*7C
$GPGSV,3,2,11,07,38,280,22,27,28,118,37,26,27,047,26,03,19,192,36*7F
$GPGSV,3,3,11,08,17,151,35,30,07,267,18,22,05,180,25*41
$GPGGA,145309.000,4000.0042,N,10515.6855,W,2,09,1.07,1653.9,M,-20.6,M,0000,0000*65
$GPGSV,3,1,11,23,85,140,42,09,57,311,24,16,56,056,39,51,43,183,34*79
$GPGSV,3,2,11,07,38,280,24,27,28,118,37,26,27,047,25,03,19,192,36*7A
$GPGSV,3,3,11,08,17,151,34,30,07,267,19,22,05,180,25*41
$GPGGA,145310.000,4000.0042,N,10515.6855,W,2,09,1.07,1653.9,M,-20.6,M,0000,0000*6D
$GPGSV,3,1,11,23,85,140,42,09,57,311,24,16,56,056,39,51,43,183,34*79
$GPGSV,3,2,11,07,38,280,25,27,28,118,36,26,27,047,24,03,19,192,36*7B
$GPGSV,3,3,11,08,17,151,32,30,07,267,20,22,05,180,25*4D
$GPGGA,145311.000,4000.0042,N,10515.6855,W,2,09,1.07,1653.9,M,-20.6,M,0000,0000*6C
$GPGSV,3,1,11,23,85,140,42,09,57,311,24,16,56,056,39,51,43,183,35*78
$GPGSV,3,2,11,07,38,280,22,27,28,118,36,26,27,047,22,03,19,192,36*7A
$GPGSV,3,3,11,08,17,151,33,30,07,267,20,22,05,180,26*4F
$GPGGA,145312.000,4000.0042,N,10515.6855,W,2,09,1.07,1653.9,M,-20.6,M,0000,0000*6F
$GPGSV,3,1,11,23,85,140,42,09,57,311,25,16,56,056,25,51,43,183,34*75
$GPGSV,3,2,11,07,38,280,25,27,28,118,37,26,27,047,23,03,19,192,35*7E
$GPGSV,3,3,11,08,17,151,33,30,07,267,19,22,05,180,26*45
$GPGGA,145313.000,4000.0042,N,10515.6855,W,2,09,1.07,1653.9,M,-20.6,M,0000,0000*6E
$GPGSV,3,1,11,23,84,141,42,09,57,311,27,16,56,056,34,51,43,183,35*76
$GPGSV,3,2,11,07,38,280,21,27,28,118,37,26,27,047,25,03,19,192,35*7C
$GPGSV,3,3,11,08,17,151,33,30,07,267,19,22,05,180,26*45
$GPGGA,145314.000,4000.0042,N,10515.6855,W,2,09,1.07,1653.9,M,-20.6,M,0000,0000*69
$GPGSV,3,1,11,23,84,141,42,09,57,311,28,16,56,056,33,51,43,183,34*7F
$GPGSV,3,2,11,07,38,280,20,27,28,118,37,26,27,047,26,03,19,192,35*7E
$GPGSV,3,3,11,08,17,151,33,30,07,267,19,22,05,180,26*45
$GPGGA,145315.000,4000.0042,N,10515.6855,W,2,09,1.07,1653.9,M,-20.6,M,0000,0000*68
$GPGSV,3,1,11,23,84,141,42,09,57,311,30,16,56,056,33,51,43,183,34*76
$GPGSV,3,2,11,07,38,280,28,27,28,118,37,26,27,047,27,03,19,192,35*77
$GPGSV,3,3,11,08,17,151,34,30,07,267,18,22,05,180,26*43
$GPGGA,145316.000,4000.0042,N,10515.6855,W,2,09,1.07,1653.9,M,-20.6,M,0000,0000*6B
$GPGSV,3,1,11,23,84,141,42,09,57,311,31,16,56,056,33,51,43,183,35*76
$GPGSV,3,2,11,07,38,280,26,27,28,118,37,26,26,047,26,03,19,192,34*78
$GPGSV,3,3,11,08,17,151,34,30,07,267,18,22,05,180,26*43
$GPGGA,145317.000,4000.0042,N,10515.6855,W,2,09,1.07,1653.9,M,-20.6,M,0000,0000*6A
$GPGSV,3,1,11,23,84,141,42,09,57,311,32,16,56,056,34,51,43,183,35*72
$GPGSV,3,2,11,07,38,280,19,27,29,118,38,26,26,047,19,03,19,192,33*71
$GPGSV,3,3,11,08,17,151,35,30,07,267,18,22,05,180,25*41
$GPGGA,145318.000,4000.0042,N,10515.6855,W,2,09,1.07,1653.9,M,-20.6,M,0000,0000*65
$GPGSV,3,1,11,23,84,141,42,09,57,311,31,16,56,056,36,51,43,183,35*73
$GPGSV,3,2,11,07,38,280,27,27,29,118,37,26,26,047,20,03,19,192,34*7E
$GPGSV,3,3,11,08,17,151,33,30,07,267,18,22,05,180,27*45
$GPGGA,145319.000,4000.0042,N,10515.6855,W,2,09,1.07,1653.9,M,-20.6,M,0000,0000*64
$GPGSV,3,1,11,23,84,141,42,09,57,311,31,16,56,056,38,51,43,183,35*7D
$GPGSV,3,2,11,07,38,280,27,27,29,118,37,26,26,047,22,03,19,192,33*7B
$GPGSV,3,3,11,08,17,151,34,30,07,267,19,22,05,180,26*42
$GPGGA,145320.000,4000.0042,N,10515.6855,W,2,09,1.07,1653.9,M,-20.6,M,0000,0000*6E
$GPGSV,3,1,11,23,84,141,42,09,57,311,31,16,56,056,37,51,43,183,35*72
$GPGSV,3,2,11,07,38,280,27,27,29,118,37,26,26,047,23,03,19,192,33*7A
$GPGSV,3,3,11,08,17,151,34,30,07,268,20,22,05,180,25*44
$GPGGA,145321.000,4000.0042,N,10515.6855,W,2,09,1.07,1653.9,M,-20.6,M,0000,0000*6F
$GPGSV,3,1,11,23,84,141,42,09,57,311,30,16,56,056,37,51,43,183,35*73
$GPGSV,3,2,11,07,38,280,27,27,29,118,37,26,26,047,24,03,19,192,33*7D
$GPGSV,3,3,11,08,17,151,34,30,07,268,21,22,05,180,25*45
$GPGGA,145322.000,4000.0042,N,10515.6855,W,2,09,1.07,1653.9,M,-20.6,M,0000,0000*6C
$GPGSV,3,1,11,23,84,141,42,09,57,311,29,16,56,056,37,51,43,183,35*7B
$GPGSV,3,2,11,07,38,280,25,27,29,118,37,26,26,047,23,03,19,192,33*78
$GPGSV,3,3,11,08,17,151,34,30,07,268,22,22,05,180,24*47
$GPGGA,145323.000,4000.0042,N,10515.6855,W,2,09,1.07,1653.9,M,-20.6,M,0000,0000*6D
$GPGSV,3,1,11,23,84,141,42,09,57,311,28,16,56,056,37,51,43,183,36*79
$GPGSV,3,2,11,07,38,280,25,27,29,118,37,26,26,047,24,03,19,192,34*78
$GPGSV,3,3,11,08,17,151,35,30,07,268,21,22,05,180,23*42
$GPGGA,145324.000,4000.0042,N,10515.6855,W,2,09,1.07,1653.9,M,-20.6,M,0000,0000*6A
$GPGSV,3,1,11,23,84,141,42,09,57,311,29,16,56,056,37,51,43,183,36*78
$GPGSV,3,2,11,07,38,280,24,27,29,118,37,26,26,047,24,03,19,192,34*79
$GPGSV,3,3,11,08,17,151,35,30,07,268,22,22,05,180,23*41
$GPGGA,145325.000,4000.0042,N,10515.6855,W,2,09,1.07,1653.9,M,-20.6,M,0000,0000*6B
$GPGSV,3,1,11,23,84,141,42,09,57,311,30,16,56,056,37,51,43,183,37*71
$GPGSV,3,2,11,07,38,280,24,27,29,118,36,26,26,047,25,03,19,192,34*79
$GPGSV,3,3,11,08,17,151,34,30,07,268,23,22,05,180,21*43
$GPGGA,145326.000,4000.0042,N,10515.6855,W,2,09,1.07,1653.9,M,-20.6,M,0000,0000*68
$GPGSV,3,1,11,23,84,141,42,09,57,311,31,16,56,056,38,51,43,183,38*70
$GPGSV,3,2,11,07,38,280,23,27,29,118,36,26,26,047,26,03,19,192,34*7D
$GPGSV,3,3,11,08,17,151,34,30,07,268,25,22,05,180,20*44
$GPGGA,145327.000,4000.0042,N,10515.6855,W,2,09,1.07,1653.9,M,-20.6,M,0000,0000*69
$GPGSV,3,1,11,23,84,141,42,09,57,311,31,16,56,056,38,51,43,183,38*70
$GPGSV,3,2,11,07,38,280,23,27,29,118,36,26,26,047,26,03,19,192,34*7D
$GPGSV,3,3,11,08,17,151,34,30,07,268,26,22,05,180,21*46
$GPGGA,145328.000,4000.0042,N,10515.6855,W,2,09,1.07,1653.9,M,-20.6,M,0000,0000*66
$GPGSV,3,1,11,23,84,141,42,09,57,311,31,16,56,056,38,51,43,183,38*70
$GPGSV,3,2,11,07,38,280,31,27,29,118,36,26,26,047,24,03,19,192,34*7C
$GPGSV,3,3,11,08,17,151,35,30,07,268,25,22,05,180,23*46
$GPGGA,145329.000,4000.0042,N,10515.6855,W,2,09,1.07,1653.9,M,-20.6,M,0000,0000*67
$GPGSV,3,1,11,23,84,141,42,09,57,311,31,16,56,056,38,51,43,183,38*70
$GPGSV,3,2,11,07,38,280,31,27,29,118,35,26,26,047,24,03,19,192,34*7F
$GPGSV,3,3,11,08,17,151,35,30,07,268,25,22,05,180,23*46
$GPGGA,145330.000,4000.0042,N,10515.6855,W,2,08,1.12,1653.9,M,-20.6,M,0000,0000*6A
$GPGSV,3,1,11,23,84,141,42,09,57,311,20,16,56,056,37,51,43,183,39*7E
$GPGSV,3,2,11,07,38,280,32,27,29,118,35,26,26,047,23,03,19,192,34*7B
$GPGSV,3,3,11,08,17,151,34,30,07,268,18,22,05,180,24*4E
$GPGGA,145331.000,4000.0042,N,10515.6855,W,2,09,1.07,1653.9,M,-20.6,M,0000,0000*6E
$GPGSV,3,1,11,23,84,141,42,09,57,311,27,16,56,056,37,51,43,183,38*78
$GPGSV,3,2,11,07,38,280,31,27,29,118,35,26,26,047,22,03,19,192,34*79
$GPGSV,3,3,11,08,17,151,34,30,07,268,18,22,05,180,24*4E
$GPGGA,145332.000,4000.0042,N,10515.6855,W,2,09,1.07,1653.9,M,-20.6,M,0000,0000*6D
$GPGSV,3,1,11,23,84,141,42,09,57,311,27,16,56,056,37,51,43,183,38*78
$GPGSV,3,2,11,07,38,281,29,27,29,118,35,26,26,047,22,03,19,192,35*70
$GPGSV,3,3,11,08,17,151,34,30,07,268,17,22,05,180,24*41
$GPGGA,145333.000,4000.0042,N,10515.6855,W,2,09,1.07,1653.9,M,-20.6,M,0000,0000*6C
$GPGSV,3,1,11,23,84,141,43,09,57,311,27,16,56,056,37,51,43,183,38*79
$GPGSV,3,2,11,07,38,281,28,27,29,118,35,26,26,047,22,03,19,192,35*71
$GPGSV,3,3,11,08,17,151,34,30,07,268,16,22,05,180,23*47
$GPGGA,145334.000,4000.0042,N,10515.6855,W,2,09,1.07,1653.9,M,-20.6,M,0000,0000*6B
$GPGSV,3,1,11,23,84,141,43,09,57,311,26,16,56,056,38,51,43,183,38*77
$GPGSV,3,2,11,07,38,281,26,27,29,118,35,26,26,047,23,03,19,192,35*7E
$GPGSV,3,3,11,08,17,151,34,30,07,268,16,22,05,180,25*41
$GPGGA,145335.000,4000.0042,N,10515.6855,W,2,09,1.07,1653.9,M,-20.6,M,0000,0000*6A
$GPGSV,3,1,11,23,84,141,43,09,57,311,25,16,56,056,38,51,43,183,38*74
$GPGSV,3,2,11,07,38,281,25,27,29,118,35,26,26,047,24,03,19,192,35*7A
$GPGSV,3,3,11,08,17,151,34,30,07,268,17,22,05,180,25*40
$GPGGA,145336.000,4000.0042,N,10515.6855,W,2,09,1.07,1653.9,M,-20.6,M,0000,0000*69
$GPGSV,3,1,11,23,84,141,43,09,57,311,26,16,56,056,38,51,43,183,38*77
$GPGSV,3,2,11,07,38,281,27,27,29,118,36,26,26,047,25,03,19,192,35*7A
$GPGSV,3,3,11,08,17,151,34,30,07,268,17,22,05,180,25*40
$GPGGA,145337.000,4000.0043,N,10515.6855,W,2,09,1.07,1653.9,M,-20.6,M,0000,0000*69
$GPGSV,3,1,11,23,84,141,43,09,57,311,33,16,56,056,38,51,43,183,37*7C
$GPGSV,3,2,11,07,38,281,27,27,29,118,36,26,26,047,26,03,19,192,34*78
$GPGSV,3,3,11,08,17,151,34,30,07,268,17,22,05,180,24*41
$GPGGA,145338.000,4000.0043,N,10515.6855,W,2,09,1.07,1653.9,M,-20.6,M,0000,0000*66
$GPGSV,3,1,11,23,84,141,43,09,57,311,32,16,56,056,38,51,43,183,36*7C
$GPGSV,3,2,11,07,38,281,28,27,29,118,36,26,26,047,27,03,19,192,33*71
$GPGSV,3,3,11,08,17,151,33,30,07,268,17,22,05,180,24*46
$GPGGA,145339.000,4000.0043,N,10515.6855,W,2,09,1.07,1653.9,M,-20.6,M,0000,0000*67
$GPGSV,3,1,11,23,84,141,43,09,57,311,31,16,56,056,38,51,43,183,36*7F
$GPGSV,3,2,11,07,38,281,27,27,29,118,37,26,26,047,27,03,19,192,34*78
$GPGSV,3,3,11,08,17,151,33,30,07,268,17,22,05,180,23*41
$GPGGA,145340.000,4000.0043,N,10515.6855,W,2,09,1.07,1653.9,M,-20.6,M,0000,0000*69
$GPGSV,3,1,11,23,84,141,43,09,57,311,29,16,56,056,39,51,43,183,35*74
$GPGSV,3,2,11,07,38,281,26,27,29,118,37,26,26,047,28,03,19,192,32*70
$GPGSV,3,3,11,08,17,151,32,30,07,268,17,22,05,180,23*40
$GPGGA,145341.000,4000.0043,N,10515.6855,W,2,09,1.07,1653.9,M,-20.6,M,0000,0000*68
$GPGSV,3,1,11,23,84,141,43,09,57,311,29,16,56,055,39,51,43,183,35*77
$GPGSV,3,2,11,07,38,281,27,27,29,118,37,26,26,047,26,03,19,192,31*7C
$GPGSV,3,3,11,08,17,151,32,30,07,268,17,22,05,180,22*41
$GPGGA,145342.000,4000.0043,N,10515.6855,W,2,09,1.07,1653.9,M,-20.6,M,0000,0000*6B
$GPGSV,3,1,11,23,84,141,43,09,57,311,30,16,56,055,38,51,43,183,35*7E
$GPGSV,3,2,11,07,38,281,27,27,29,118,37,26,26,047,27,03,19,192,32*7E
$GPGSV,3,3,11,08,17,151,34,30,07,268,18,22,05,180,23*49
$GPGGA,145343.000,4000.0043,N,10515.6855,W,2,08,1.12,1653.9,M,-20.6,M,0000,0000*6F
$GPGSV,3,1,11,23,84,141,43,09,57,311,22,16,56,055,37,51,43,183,36*71
$GPGSV,3,2,11,07,38,281,25,27,29,118,37,26,26,047,26,03,19,192,32*7D
$GPGSV,3,3,11,08,17,151,34,30,07,268,18,22,05,180,22*48
$GPGGA,145344.000,4000.0043,N,10515.6855,W,2,09,1.07,1653.9,M,-20.6,M,0000,0000*6D
$GPGSV,3,1,11,23,84,141,43,09,57,311,30,16,56,055,37,51,43,183,36*72
$GPGSV,3,2,11,07,38,281,22,27,29,118,37,26,26,047,25,03,19,192,32*79
$GPGSV,3,3,11,08,17,151,34,30,07,268,18,22,05,180,18*41
$GPGGA,145345.000,4000.0043,N,10515.6855,W,2,09,1.07,1653.9,M,-20.6,M,0000,0000*6C
$GPGSV,3,1,11,23,84,141,43,09,57,311,32,16,56,055,36,51,43,183,36*71
$GPGSV,3,2,11,07,38,281,29,27,29,118,35,26,26,047,27,03,19,192,30*70
$GPGSV,3,3,11,08,17,151,33,30,07,268,19,22,05,180,17*48
$GPGGA,145346.000,4000.0043,N,10515.6855,W,2,09,1.07,1653.9,M,-20.6,M,0000,0000*6F
$GPGSV,3,1,11,23,84,141,43,09,57,311,31,16,56,055,36,51,43,183,36*72
$GPGSV,3,2,11,07,38,281,30,27,29,118,34,26,26,047,27,03,19,192,29*71
$GPGSV,3,3,11,08,17,151,33,30,07,268,21,22,05,180,19*4D
$GPGGA,145347.000,4000.0043,N,10515.6855,W,2,09,1.07,1653.9,M,-20.6,M,0000,0000*6E
$GPGSV,3,1,11,23,84,141,43,09,57,311,24,16,56,055,37,51,43,183,36*77
$GPGSV,3,2,11,07,38,281,30,27,29,118,35,26,26,047,27,03,19,192,30*78
$GPGSV,3,3,11,08,17,151,34,30,07,268,22,22,05,180,22*41
$GPGGA,145348.000,4000.0043,N,10515.6855,W,2,09,1.07,1653.9,M,-20.6,M,0000,0000*61
$GPGSV,3,1,11,23,84,142,43,09,57,311,26,16,56,055,37,51,43,183,36*76
$GPGSV,3,2,11,07,38,281,27,27,29,118,36,26,26,047,25,03,19,192,31*7E
$GPGSV,3,3,11,08,17,151,34,30,07,268,23,22,05,180,22*40
$GPGGA,145349.000,4000.0043,N,10515.6855,W,2,09,1.07,1653.9,M,-20.6,M,0000,0000*60
$GPGSV,3,1,11,23,84,142,43,09,57,311,26,16,56,055,37,51,43,183,36*76
$GPGSV,3,2,11,07,38,281,34,27,29,118,36,26,26,047,23,03,19,192,31*7A
$GPGSV,3,3,11,08,17,151,33,30,07,268,23,22,05,180,23*46
$GPGGA,145350.000,4000.0043,N,10515.6855,W,2,08,1.12,1653.9,M,-20.6,M,0000,0000*6D
$GPGSV,3,1,11,23,84,142,43,09,57,311,24,16,56,055,38,51,43,183,36*7B
$GPGSV,3,2,11,07,38,281,26,27,29,118,36,26,26,047,22,03,19,192,30*79
$GPGSV,3,3,11,08,17,151,33,30,07,268,23,22,05,180,24*41
$GPGGA,145351.000,4000.0043,N,10515.6855,W,2,09,1.07,1653.9,M,-20.6,M,0000,0000*69
$GPGSV,3,1,11,23,84,142,43,09,57,311,24,16,56,055,37,51,43,183,36*74
$GPGSV,3,2,11,07,38,281,25,27,29,118,36,26,26,047,23,03,19,192,30*7B
$GPGSV,3,3,11,08,17,151,34,30,07,268,23,22,05,180,25*47
$GPGGA,145352.000,4000.0043,N,10515.6855,W,2,09,1.07,1653.9,M,-20.6,M,0000,0000*6A
$GPGSV,3,1,11,23,84,142,43,09,57,311,35,16,56,055,38,51,43,183,35*78
$GPGSV,3,2,11,07,38,281,23,27,29,117,36,26,26,047,23,03,19,192,30*72
$GPGSV,3,3,11,08,17,151,34,30,07,268,21,22,05,180,24*44
$GPGGA,145353.000,4000.0043,N,10515.6855,W,2,09,1.07,1653.9,M,-20.6,M,0000,0000*6B
$GPGSV,3,1,11,23,84,142,43,09,57,311,35,16,56,055,39,51,43,183,36*7A
$GPGSV,3,2,11,07,38,281,24,27,29,117,36,26,26,047,23,03,19,192,31*74
$GPGSV,3,3,11,08,17,151,34,30,07,268,20,22,05,180,24*45
$GPGGA,145354.000,4000.0043,N,10515.6855,W,2,09,1.07,1653.9,M,-20.6,M,0000,0000*6C
$GPGSV,3,1,11,23,84,142,44,09,57,311,34,16,56,055,39,51,43,183,35*7F
$GPGSV,3,2,11,07,38,281,22,27,29,117,37,26,26,047,23,03,19,192,32*70
$GPGSV,3,3,11,08,17,151,32,30,07,268,21,22,05,180,25*43
$GPGGA,145355.000,4000.0043,N,10515.6855,W,2,09,1.07,1653.9,M,-20.6,M,0000,0000*6D
$GPGSV,3,1,11,23,84,142,44,09,57,311,34,16,56,055,39,51,43,183,35*7F
$GPGSV,3,2,11,07,38,281,21,27,29,117,38,26,26,047,24,03,19,192,33*7A
$GPGSV,3,3,11,08,17,151,32,30,08,268,21,22,05,180,25*4C
$GPGGA,145356.000,4000.0043,N,10515.6855,W,2,09,1.07,1653.9,M,-20.6,M,0000,0000*6E
$GPGSV,3,1,11,23,84,142,44,09,57,311,35,16,56,055,40,51,43,183,34*71
$GPGSV,3,2,11,07,38,281,21,27,29,117,38,26,26,047,25,03,19,192,34*7C
$GPGSV,3,3,11,08,17,151,33,30,08,268,21,22,05,180,26*4E
$GPGGA,145357.000,4000.0043,N,10515.6855,W,2,09,1.07,1653.9,M,-20.6,M,0000,0000*6F
$GPGSV,3,1,11,23,84,142,44,09,57,311,27,16,56,055,41,51,43,183,34*73
$GPGSV,3,2,11,07,38,281,21,27,29,117,38,26,26,047,23,03,19,192,35*7B
$GPGSV,3,3,11,08,17,151,33,30,08,268,20,22,05,180,25*4C
$GPGGA,145358.000,4000.0043,N,10515.6855,W,2,09,1.07,1653.9,M,-20.6,M,0000,0000*60
$GPGSV,3,1,11,23,84,142,44,09,57,311,29,16,56,055,42,51,43,183,33*79
$GPGSV,3,2,11,07,38,281,28,27,29,117,37,26,26,047,24,03,19,192,36*79
$GPGSV,3,3,11,08,17,151,34,30,08,268,18,22,05,180,24*41
$GPGGA,145359.000,4000.0043,N,10515.6855,W,2,09,1.07,1653.9,M,-20.6,M,0000,0000*61
$GPGSV,3,1,11,23,84,142,44,09,57,311,30,16,56,055,43,51,43,183,34*77
$GPGSV,3,2,11,07,38,281,27,27,29,117,37,26,26,047,26,03,19,192,36*74
$GPGSV,3,3,11,08,17,151,33,30,08,268,17,22,05,180,23*4E
$GPGGA,145400.000,4000.0043,N,10515.6855,W,2,09,1.07,1653.9,M,-20.6,M,0000,0000*6A
$GPGSV,3,1,11,23,84,142,44,09,57,311,32,16,56,055,43,51,43,183,34*75
$GPGSV,3,2,11,07,38,281,28,27,29,117,37,26,26,047,27,03,19,192,36*7A
$GPGSV,3,3,11,08,17,151,34,30,08,268,17,22,05,180,22*48
$GPGGA,145401.000,4000.0043,N,10515.6855,W,2,09,1.07,1653.9,M,-20.6,M,0000,0000*6B
$GPGSV,3,1,11,23,84,142,44,09,57,311,32,16,56,055,44,51,43,183,34*72
$GPGSV,3,2,11,07,38,281,28,27,29,117,36,26,26,047,27,03,19,192,36*7B
$GPGSV,3,3,11,08,17,151,34,30,08,268,16,22,05,180,22*49
$GPGGA,145402.000,4000.0043,N,10515.6855,W,2,09,1.07,1653.9,M,-20.6,M,0000,0000*68
$GPGSV,3,1,11,23,84,142,44,09,57,311,32,16,56,055,44,51,43,183,34*72
$GPGSV,3,2,11,07,38,281,27,27,29,117,36,26,26,047,27,03,19,192,37*75
$GPGSV,3,3,11,08,17,151,34,30,08,268,15,22,05,180,21*49
$GPGGA,145403.000,4000.0043,N,10515.6855,W,2,09,1.07,1653.9,M,-20.6,M,0000,0000*69
$GPGSV,3,1,11,23,84,142,44,09,57,311,33,16,56,055,44,51,43,183,33*74
$GPGSV,3,2,11,07,38,281,26,27,29,117,36,26,26,047,28,03,19,192,37*7B
$GPGSV,3,3,11,08,17,151,34,30,08,268,16,22,05,180,20*4B
$GPGGA,145404.000,4000.0043,N,10515.6855,W,2,09,1.07,1653.9,M,-20.6,M,0000,0000*6E
$GPGSV,3,1,11,23,84,142,44,09,57,311,25,16,56,055,43,51,43,183,32*75
$GPGSV,3,2,11,07,38,281,26,27,29,117,36,26,26,047,27,03,19,192,37*74
$GPGSV,3,3,11,08,17,151,33,30,08,268,17,22,05,180,20*4D
$GPGGA,145405.000,4000.0043,N,10515.6855,W,2,09,1.07,1653.9,M,-20.6,M,0000,0000*6F
$GPGSV,3,1,11,23,84,142,44,09,57,311,25,16,56,055,31,51,43,183,32*70
$GPGSV,3,2,11,07,38,281,26,27,29,117,37,26,26,047,27,03,19,192,30*72
$GPGSV,3,3,11,08,17,151,25,30,08,268,24,22,05,180,21*4B
$GPGGA,145406.000,4000.0043,N,10515.6855,W,2,09,1.07,1653.9,M,-20.6,M,0000,0000*6C
$GPGSV,3,1,11,23,84,142,44,09,57,311,27,16,56,055,38,51,43,183,33*7A
$GPGSV,3,2,11,07,38,281,26,27,29,117,36,26,26,047,26,03,19,192,30*72
$GPGSV,3,3,11,08,17,151,33,30,08,268,22,22,05,180,20*4B
$GPGGA,145407.000,4000.0043,N,10515.6855,W,2,09,1.07,1653.9,M,-20.6,M,0000,0000*6D
$GPGSV,3,1,11,23,84,142,43,09,57,311,29,16,56,055,38,51,43,183,35*75
$GPGSV,3,2,11,07,38,281,28,27,29,117,35,26,26,047,24,03,19,192,31*7C
$GPGSV,3,3,11,08,17,151,32,30,08,268,20,22,05,180,19*42
$GPGGA,145408.000,4000.0043,N,10515.6855,W,2,09,1.07,1653.9,M,-20.6,M,0000,0000*62
$GPGSV,3,1,11,23,84,142,43,09,57,311,36,16,56,055,39,51,43,183,34*7B
$GPGSV,3,2,11,07,38,281,27,27,29,117,37,26,26,047,34,03,19,192,22*72
$GPGSV,3,3,11,08,17,151,34,30,08,268,21,22,05,180,21*4E
$GPGGA,145409.000,4000.0043,N,10515.6855,W,2,09,1.07,1653.9,M,-20.6,M,0000,0000*63
$GPGSV,3,1,11,23,84,142,44,09,57,311,35,16,56,055,38,51,43,183,36*7C
$GPGSV,3,2,11,07,38,281,29,27,29,117,38,26,26,047,25,03,19,192,22*73
$GPGSV,3,3,11,08,17,151,27,30,08,268,22,22,05,180,22*4C
$GPGGA,145410.000,4000.0043,N,10515.6855,W,2,09,1.07,1653.9,M,-20.6,M,0000,0000*6B
$GPGSV,3,1,11,23,84,142,43,09,57,311,26,16,56,055,39,51,43,183,36*78
$GPGSV,3,2,11,07,38,281,28,27,29,117,38,26,26,047,23,03,19,192,24*72
$GPGSV,3,3,11,08,17,151,28,30,08,268,22,22,05,180,21*40
$GPGGA,145411.000,4000.0043,N,10515.6855,W,2,09,1.07,1653.9,M,-20.6,M,0000,0000*6A
$GPGSV,3,1,11,23,84,142,43,09,57,311,27,16,56,055,39,51,43,183,36*79
$GPGSV,3,2,11,07,38,281,30,27,29,117,38,26,26,047,22,03,19,192,25*7B
$GPGSV,3,3,11,08,17,151,28,30,08,268,23,22,05,180,20*40
$GPGGA,145412.000,4000.0043,N,10515.6855,W,2,09,1.07,1653.9,M,-20.6,M,0000,0000*69
$GPGSV,3,1,11,23,84,142,43,09,57,311,28,16,56,055,39,51,43,183,37*77
$GPGSV,3,2,11,07,38,281,30,27,29,117,38,26,26,047,21,03,19,192,26*7B
$GPGSV,3,3,11,08,17,151,29,30,08,268,24,22,05,180,21*47
$GPGGA,145413.000,4000.0043,N,10515.6855,W,2,09,1.07,1653.9,M,-20.6,M,0000,0000*68
$GPGSV,3,1,11,23,84,142,43,09,57,311,28,16,56,055,39,51,43,183,38*78
$GPGSV,3,2,11,07,38,281,31,27,29,117,38,26,26,047,21,03,19,192,27*7B
$GPGSV,3,3,11,08,17,151,30,30,08,268,25,22,05,180,22*4D
$GPGGA,145414.000,4000.0043,N,10515.6855,W,2,09,1.07,1653.9,M,-20.6,M,0000,0000*6F
$GPGSV,3,1,11,23,84,142,43,09,57,311,28,16,56,055,39,51,43,183,38*78
$GPGSV,3,2,11,07,38,281,32,27,29,117,38,26,26,047,20,03,19,192,26*78
$GPGSV,3,3,11,08,17,151,30,30,08,268,25,22,05,180,23*4C
$GPGGA,145415.000,4000.0043,N,10515.6855,W,2,09,1.07,1653.9,M,-20.6,M,0000,0000*6E
$GPGSV,3,1,11,23,84,142,43,09,57,311,28,16,56,055,40,51,43,183,38*76
$GPGSV,3,2,11,07,38,281,33,27,29,117,38,26,26,047,25,03,19,192,24*7E
$GPGSV,3,3,11,08,17,151,30,30,08,268,25,22,05,180,22*4D
$GPGGA,145416.000,4000.0043,N,10515.6855,W,2,09,1.07,1653.9,M,-20.6,M,0000,0000*6D
$GPGSV,3,1,11,23,84,142,43,09,57,311,29,16,55,055,39,51,43,183,38*7A
$GPGSV,3,2,11,07,38,281,32,27,29,117,39,26,26,047,25,03,19,192,25*7F
$GPGSV,3,3,11,08,17,151,31,30,08,268,25,22,05,180,22*4C
$GPGGA,145417.000,4000.0043,N,10515.6855,W,2,09,1.07,1653.9,M,-20.6,M,0000,0000*6C
$GPGSV,3,1,11,23,84,142,43,09,57,311,28,16,55,055,38,51,43,183,38*7A
$GPGSV,3,2,11,07,38,281,33,27,29,117,37,26,26,047,29,03,19,192,34*7C
$GPGSV,3,3,11,08,17,151,31,30,08,268,24,22,05,180,23*4C
$GPGGA,145418.000,4000.0043,N,10515.6855,W,2,09,1.07,1653.9,M,-20.6,M,0000,0000*63
$GPGSV,3,1,11,23,84,142,43,09,57,311,28,16,55,055,37,51,43,183,38*75
$GPGSV,3,2,11,07,38,281,33,27,29,117,36,26,26,047,26,03,19,192,34*72
$GPGSV,3,3,11,08,17,151,32,30,08,268,24,22,05,180,22*4E
$GPGGA,145419.000,4000.0043,N,10515.6855,W,2,09,1.07,1653.9,M,-20.6,M,0000,0000*62
$GPGSV,3,1,11,23,84,142,43,09,57,311,28,16,55,055,37,51,43,183,37*7A
$GPGSV,3,2,11,07,38,281,32,27,29,117,35,26,26,047,24,03,19,192,34*72
$GPGSV,3,3,11,08,17,151,31,30,08,268,23,22,05,180,22*4A
$GPGGA,145420.000,4000.0043,N,10515.6855,W,2,09,1.07,1653.9,M,-20.6,M,0000,0000*68
$GPGSV,3,1,11,23,84,142,43,09,57,311,28,16,55,055,39,51,43,183,35*76
$GPGSV,3,2,11,07,38,281,24,27,29,117,35,26,26,047,24,03,19,192,23*73
$GPGSV,3,3,11,08,17,151,32,30,08,268,22,22,05,180,22*48
$GPGGA,145421.000,4000.0043,N,10515.6855,W,2,09,1.07,1653.9,M,-20.6,M,0000,0000*69
$GPGSV,3,1,11,23,84,142,43,09,57,311,30,16,55,055,40,51,43,183,35*71
$GPGSV,3,2,11,07,38,281,24,27,29,117,36,26,26,047,34,03,19,192,24*76
$GPGSV,3,3,11,08,17,151,33,30,08,268,23,22,05,180,22*48
$GPGGA,145422.000,4000.0043,N,10515.6855,W,2,09,1.07,1653.9,M,-20.6,M,0000,0000*6A
$GPGSV,3,1,11,23,84,142,43,09,57,311,31,16,55,055,40,51,43,183,35*70
$GPGSV,3,2,11,07,38,281,26,27,29,117,36,26,26,047,35,03,19,192,25*74
$GPGSV,3,3,11,08,17,151,34,30,08,268,23,22,04,180,22*4E
$GPGGA,145423.000,4000.0042,N,10515.6855,W,2,08,1.08,1653.9,M,-20.6,M,0000,0000*64
$GPGSV,3,1,11,23,84,142,43,09,57,311,31,16,55,055,41,51,43,183,35*71
$GPGSV,3,2,11,07,38,281,25,27,29,117,37,26,26,047,33,03,19,192,32*76
$GPGSV,3,3,11,08,17,151,35,30,08,268,22,22,04,180,23*4F
$GPGGA,145424.000,4000.0043,N,10515.6855,W,2,08,1.08,1653.9,M,-20.6,M,0000,0000*62
$GPGSV,3,1,11,23,84,142,43,09,57,311,31,16,55,055,41,51,43,183,35*71
$GPGSV,3,2,11,07,38,281,27,27,29,117,38,26,26,047,31,03,19,192,33*78
$GPGSV,3,3,11,08,17,151,35,30,08,268,21,22,04,180,24*4B
$GPGGA,145425.000,4000.0043,N,10515.6855,W,2,08,1.08,1653.9,M,-20.6,M,0000,0000*63
$GPGSV,3,1,11,23,84,142,43,09,57,311,31,16,55,055,41,51,43,183,35*71
$GPGSV,3,2,11,07,38,281,26,27,29,117,38,26,26,047,31,03,19,192,33*79
$GPGSV,3,3,11,08,17,151,35,30,08,268,20,22,04,180,25*4B
$GPGGA,145426.000,4000.0043,N,10515.6855,W,2,08,1.08,1653.9,M,-20.6,M,0000,0000*60
$GPGSV,3,1,11,23,84,142,43,09,57,311,30,16,55,055,41,51,43,183,35*70
$GPGSV,3,2,11,07,38,281,27,27,29,117,38,26,26,047,30,03,19,192,34*7E
$GPGSV,3,3,11,08,17,151,36,30,08,268,19,22,04,180,26*41
