¢’rºÊÊb‰‰‰‰	r‚b‚r‚‚b‚²‚ŠÂ‚bbŽÉJ‰C!ÒeEu‚r‚bÅ‰©Š	r‚‚br‚Î	‚bZrš’j
$PMTK001,314,3*36
$PMTK001,220,3*30
$PGACK,33,0*6E
$GPGGA,000043.799,,,,,0,00,,,M,,M,,*78
$GPGSV,1,1,00*79
$GPGGA,000044.799,,,,,0,00,,,M,,M,,*7F
$GPGSV,1,1,00*79
$GPGGA,000045.799,,,,,0,00,,,M,,M,,*7E
$GPGSV,1,1,00*79
$GPGGA,000046.799,,,,,0,00,,,M,,M,,*7D
$GPGSV,1,1,00*79
$GPGGA,000047.799,,,,,0,00,,,M,,M,,*7C
$GPGSV,1,1,00*79
$GPGGA,000048.799,,,,,0,00,,,M,,M,,*73
$GPGSV,1,1,00*79
$GPGGA,000049.799,,,,,0,00,,,M,,M,,*72
$GPGSV,1,1,00*79
$GPGGA,000050.799,,,,,0,00,,,M,,M,,*7A
$GPGSV,1,1,00*79
$GPGGA,000051.799,,,,,0,00,,,M,,M,,*7B
$GPGSV,1,1,00*79
$GPGGA,000052.799,,,,,0,00,,,M,,M,,*78
$GPGSV,1,1,00*79
$GPGGA,000053.799,,,,,0,00,,,M,,M,,*79
$GPGSV,1,1,00*79
$GPGGA,000054.799,,,,,0,00,,,M,,M,,*7E
$GPGSV,1,1,00*79
$GPGGA,000055.799,,,,,0,00,,,M,,M,,*7F
$GPGSV,1,1,00*79
$GPGGA,000056.799,,,,,0,00,,,M,,M,,*7C
$GPGSV,1,1,00*79
$GPGGA,000057.799,,,,,0,00,,,M,,M,,*7D
$GPGSV,1,1,00*79
$GPGGA,000058.799,,,,,0,00,,,M,,M,,*72
$GPGSV,1,1,00*79
$GPGGA,000059.799,,,,,0,00,,,M,,M,,*73
$GPGSV,1,1,00*79
$GPGGA,000100.799,,,,,0,00,,,M,,M,,*7E
$GPGSV,1,1,00*79
$GPGGA,000101.799,,,,,0,00,,,M,,M,,*7F
$GPGSV,1,1,00*79
$GPGGA,000102.799,,,,,0,00,,,M,,M,,*7C
$GPGSV,1,1,00*79
$GPGGA,000103.799,,,,,0,00,,,M,,M,,*7D
$GPGSV,1,1,00*79
$GPGGA,000104.799,,,,,0,00,,,M,,M,,*7A
$GPGSV,1,1,00*79
$GPGGA,000105.799,,,,,0,00,,,M,,M,,*7B
$GPGSV,1,1,00*79
$GPGGA,000106.799,,,,,0,00,,,M,,M,,*78
$GPGSV,1,1,00*79
$GPGGA,000107.799,,,,,0,00,,,M,,M,,*79
$GPGSV,1,1,00*79
$GPGGA,000108.799,,,,,0,00,,,M,,M,,*76
$GPGSV,1,1,00*79
$GPGGA,000109.799,,,,,0,00,,,M,,M,,*77
$GPGSV,1,1,00*79
$GPGGA,000110.799,,,,,0,00,,,M,,M,,*7F
$GPGSV,1,1,00*79
$GPGGA,000111.799,,,,,0,00,,,M,,M,,*7E
$GPGSV,1,1,00*79
$GPGGA,000112.799,,,,,0,00,,,M,,M,,*7D
$GPGSV,1,1,00*79
$GPGGA,000113.799,,,,,0,00,,,M,,M,,*7C
$GPGSV,1,1,00*79
$GPGGA,000114.799,,,,,0,00,,,M,,M,,*7B
$GPGSV,1,1,00*79
$GPGGA,000115.799,,,,,0,00,,,M,,M,,*7A
$GPGSV,1,1,00*79
$GPGGA,000116.799,,,,,0,00,,,M,,M,,*79
$GPGSV,1,1,00*79
$GPGGA,000117.799,,,,,0,00,,,M,,M,,*78
$GPGSV,1,1,00*79
$GPGGA,000118.799,,,,,0,00,,,M,,M,,*77
$GPGSV,1,1,00*79
$GPGGA,000119.799,,,,,0,00,,,M,,M,,*76
$GPGSV,1,1,00*79
$GPGGA,000120.799,,,,,0,00,,,M,,M,,*7C
$GPGSV,1,1,00*79
$GPGGA,000121.799,,,,,0,00,,,M,,M,,*7D
$GPGSV,1,1,00*79
$GPGGA,000122.799,,,,,0,00,,,M,,M,,*7E
$GPGSV,1,1,00*79
$GPGGA,000123.799,,,,,0,00,,,M,,M,,*7F
$GPGSV,1,1,00*79
$GPGGA,000124.799,,,,,0,00,,,M,,M,,*78
$GPGSV,1,1,00*79
$GPGGA,000125.799,,,,,0,00,,,M,,M,,*79
$GPGSV,1,1,00*79
$GPGGA,000126.799,,,,,0,00,,,M,,M,,*7A
$GPGSV,1,1,00*79
$GPGGA,000127.799,,,,,0,00,,,M,,M,,*7B
$GPGSV,1,1,00*79
$GPGGA,000128.799,,,,,0,00,,,M,,M,,*74
$GPGSV,1,1,00*79
$GPGGA,000129.799,,,,,0,00,,,M,,M,,*75
$GPGSV,1,1,00*79
$GPGGA,000130.799,,,,,0,00,,,M,,M,,*7D
$GPGSV,1,1,00*79
$GPGGA,000131.799,,,,,0,00,,,M,,M,,*7C
$GPGSV,1,1,00*79
$GPGGA,000132.799,,,,,0,00,,,M,,M,,*7F
$GPGSV,1,1,00*79
$GPGGA,000133.799,,,,,0,00,,,M,,M,,*7E
$GPGSV,1,1,00*79
$GPGGA,000134.799,,,,,0,00,,,M,,M,,*79
$GPGSV,1,1,00*79
$GPGGA,000135.799,,,,,0,00,,,M,,M,,*78
$GPGSV,1,1,00*79
$GPGGA,000136.799,,,,,0,00,,,M,,M,,*7B
$GPGSV,1,1,00*79
$GPGGA,000137.799,,,,,0,00,,,M,,M,,*7A
$GPGSV,1,1,00*79
$GPGGA,000138.799,,,,,0,00,,,M,,M,,*75
$GPGSV,1,1,00*79
$GPGGA,000139.799,,,,,0,00,,,M,,M,,*74
$GPGSV,1,1,00*79
$GPGGA,000140.799,,,,,0,00,,,M,,M,,*7A
$GPGSV,1,1,00*79
$GPGGA,000141.799,,,,,0,00,,,M,,M,,*7B
$GPGSV,1,1,00*79
$GPGGA,000142.799,,,,,0,00,,,M,,M,,*78
$GPGSV,1,1,00*79
$GPGGA,000143.799,,,,,0,00,,,M,,M,,*79
$GPGSV,1,1,00*79
$GPGGA,000144.799,,,,,0,00,,,M,,M,,*7E
$GPGSV,1,1,00*79
$GPGGA,000145.799,,,,,0,00,,,M,,M,,*7F
$GPGSV,1,1,00*79
$GPGGA,000146.799,,,,,0,00,,,M,,M,,*7C
$GPGSV,1,1,00*79
$GPGGA,000147.799,,,,,0,00,,,M,,M,,*7D
$GPGSV,1,1,00*79
$GPGGA,000148.799,,,,,0,00,,,M,,M,,*72
$GPGSV,1,1,00*79
$GPGGA,000149.799,,,,,0,00,,,M,,M,,*73
$GPGSV,1,1,00*79
$GPGGA,000150.800,,,,,0,00,,,M,,M,,*74
$GPGSV,1,1,00*79
$GPGGA,000151.800,,,,,0,00,,,M,,M,,*75
$GPGSV,1,1,00*79
$GPGGA,000152.800,,,,,0,00,,,M,,M,,*76
$GPGSV,1,1,00*79
$GPGGA,000153.800,,,,,0,00,,,M,,M,,*77
$GPGSV,1,1,00*79
$GPGGA,000154.800,,,,,0,00,,,M,,M,,*70
$GPGSV,1,1,00*79
$GPGGA,000155.800,,,,,0,00,,,M,,M,,*71
$GPGSV,1,1,00*79
$GPGGA,000156.800,,,,,0,00,,,M,,M,,*72
$GPGSV,1,1,00*79
$GPGGA,000157.800,,,,,0,00,,,M,,M,,*73
$GPGSV,1,1,00*79
$GPGGA,000158.800,,,,,0,00,,,M,,M,,*7C
$GPGSV,1,1,00*79
$GPGGA,000159.800,,,,,0,00,,,M,,M,,*7D
$GPGSV,1,1,00*79
$GPGGA,000200.800,,,,,0,00,,,M,,M,,*72
$GPGSV,1,1,00*79
$GPGGA,000201.800,,,,,0,00,,,M,,M,,*73
$GPGSV,1,1,00*79
$GPGGA,000202.800,,,,,0,00,,,M,,M,,*70
$GPGSV,1,1,00*79
$GPGGA,000203.800,,,,,0,00,,,M,,M,,*71
$GPGSV,1,1,00*79
$GPGGA,000204.800,,,,,0,00,,,M,,M,,*76
$GPGSV,1,1,00*79
$GPGGA,000205.800,,,,,0,00,,,M,,M,,*77
$GPGSV,1,1,00*79
$GPGGA,000206.800,,,,,0,00,,,M,,M,,*74
$GPGSV,1,1,00*79
$GPGGA,000207.800,,,,,0,00,,,M,,M,,*75
$GPGSV,1,1,00*79
$GPGGA,000208.800,,,,,0,00,,,M,,M,,*7A
$GPGSV,1,1,00*79
$GPGGA,000209.800,,,,,0,00,,,M,,M,,*7B
$GPGSV,1,1,00*79
$GPGGA,000210.800,,,,,0,00,,,M,,M,,*73
$GPGSV,1,1,00*79
$GPGGA,000211.800,,,,,0,00,,,M,,M,,*72
$GPGSV,1,1,00*79
$GPGGA,000212.800,,,,,0,00,,,M,,M,,*71
$GPGSV,1,1,00*79
$GPGGA,000213.800,,,,,0,00,,,M,,M,,*70
$GPGSV,1,1,00*79
$GPGGA,000214.800,,,,,0,00,,,M,,M,,*77
$GPGSV,1,1,00*79
$GPGGA,000215.800,,,,,0,00,,,M,,M,,*76
$GPGSV,1,1,00*79
$GPGGA,000216.800,,,,,0,00,,,M,,M,,*75
$GPGSV,1,1,00*79
$GPGGA,000217.800,,,,,0,00,,,M,,M,,*74
$GPGSV,1,1,00*79
$GPGGA,000218.800,,,,,0,00,,,M,,M,,*7B
$GPGSV,1,1,00*79
$GPGGA,000219.800,,,,,0,00,,,M,,M,,*7A
$GPGSV,1,1,00*79
$GPGGA,000220.800,,,,,0,00,,,M,,M,,*70
$GPGSV,1,1,00*79
$GPGGA,000221.800,,,,,0,00,,,M,,M,,*71
$GPGSV,1,1,00*79
$GPGGA,000222.800,,,,,0,00,,,M,,M,,*72
$GPGSV,1,1,00*79
$GPGGA,000223.800,,,,,0,00,,,M,,M,,*73
$GPGSV,1,1,00*79
$GPGGA,000224.800,,,,,0,00,,,M,,M,,*74
$GPGSV,1,1,00*79
$GPGGA,000225.800,,,,,0,00,,,M,,M,,*75
$GPGSV,1,1,00*79
$GPGGA,000226.800,,,,,0,00,,,M,,M,,*76
$GPGSV,1,1,00*79
$GPGGA,000227.800,,,,,0,00,,,M,,M,,*77
$GPGSV,1,1,00*79
$GPGGA,000228.800,,,,,0,00,,,M,,M,,*78
$GPGSV,1,1,00*79
$GPGGA,000229.800,,,,,0,00,,,M,,M,,*79
$GPGSV,1,1,00*79
$GPGGA,000230.800,,,,,0,00,,,M,,M,,*71
$GPGSV,1,1,00*79
$GPGGA,000231.800,,,,,0,00,,,M,,M,,*70
$GPGSV,1,1,00*79
$GPGGA,000232.800,,,,,0,00,,,M,,M,,*73
$GPGSV,1,1,00*79
$GPGGA,000233.800,,,,,0,00,,,M,,M,,*72
$GPGSV,1,1,00*79
$GPGGA,000234.800,,,,,0,00,,,M,,M,,*75
$GPGSV,1,1,00*79
$GPGGA,000235.800,,,,,0,00,,,M,,M,,*74
$GPGSV,1,1,00*79
$GPGGA,000236.800,,,,,0,00,,,M,,M,,*77
$GPGSV,1,1,00*79
$GPGGA,000237.800,,,,,0,00,,,M,,M,,*76
$GPGSV,1,1,00*79
$GPGGA,000238.800,,,,,0,00,,,M,,M,,*79
$GPGSV,1,1,00*79
$GPGGA,000239.800,,,,,0,00,,,M,,M,,*78
$GPGSV,1,1,00*79
$GPGGA,000240.800,,,,,0,00,,,M,,M,,*76
$GPGSV,1,1,00*79
$GPGGA,000241.800,,,,,0,00,,,M,,M,,*77
$GPGSV,1,1,00*79
$GPGGA,000242.800,,,,,0,00,,,M,,M,,*74
$GPGSV,1,1,00*79
$GPGGA,000243.800,,,,,0,00,,,M,,M,,*75
$GPGSV,1,1,00*79
$GPGGA,000244.800,,,,,0,00,,,M,,M,,*72
$GPGSV,1,1,00*79
$GPGGA,000245.800,,,,,0,00,,,M,,M,,*73
$GPGSV,1,1,00*79
$GPGGA,000246.800,,,,,0,00,,,M,,M,,*70
$GPGSV,1,1,00*79
$GPGGA,000247.800,,,,,0,00,,,M,,M,,*71
$GPGSV,1,1,00*79
$GPGGA,000248.800,,,,,0,00,,,M,,M,,*7E
$GPGSV,1,1,00*79
$GPGGA,000249.800,,,,,0,00,,,M,,M,,*7F
$GPGSV,1,1,00*79
$GPGGA,000250.800,,,,,0,00,,,M,,M,,*77
$GPGSV,1,1,00*79
$GPGGA,000251.800,,,,,0,00,,,M,,M,,*76
$GPGSV,1,1,00*79
$GPGGA,000252.800,,,,,0,00,,,M,,M,,*75
$GPGSV,1,1,00*79
$GPGGA,000253.800,,,,,0,00,,,M,,M,,*74
$GPGSV,1,1,00*79
$GPGGA,000254.800,,,,,0,00,,,M,,M,,*73
$GPGSV,1,1,00*79
$GPGGA,000255.800,,,,,0,00,,,M,,M,,*72
$GPGSV,1,1,00*79
$GPGGA,000256.800,,,,,0,00,,,M,,M,,*71
$GPGSV,1,1,00*79
$GPGGA,000257.800,,,,,0,00,,,M,,M,,*70
$GPGSV,1,1,00*79
$GPGGA,000258.800,,,,,0,00,,,M,,M,,*7F
$GPGSV,1,1,00*79
$GPGGA,000259.800,,,,,0,00,,,M,,M,,*7E
$GPGSV,1,1,00*79
$GPGGA,000300.800,,,,,0,00,,,M,,M,,*73
$GPGSV,1,1,00*79
$GPGGA,000301.800,,,,,0,00,,,M,,M,,*72
$GPGSV,1,1,00*79
$GPGGA,000302.800,,,,,0,00,,,M,,M,,*71
$GPGSV,1,1,00*79
$GPGGA,000303.800,,,,,0,00,,,M,,M,,*70
$GPGSV,1,1,00*79
$GPGGA,000304.800,,,,,0,00,,,M,,M,,*77
$GPGSV,1,1,00*79
$GPGGA,000305.800,,,,,0,00,,,M,,M,,*76
$GPGSV,1,1,00*79
$GPGGA,000306.800,,,,,0,00,,,M,,M,,*75
$GPGSV,1,1,00*79
$GPGGA,000307.800,,,,,0,00,,,M,,M,,*74
$GPGSV,1,1,00*79
$GPGGA,000308.800,,,,,0,00,,,M,,M,,*7B
$GPGSV,1,1,00*79
$GPGGA,000309.800,,,,,0,00,,,M,,M,,*7A
$GPGSV,1,1,00*79
$GPGGA,000310.800,,,,,0,00,,,M,,M,,*72
$GPGSV,1,1,00*79
$GPGGA,000311.800,,,,,0,00,,,M,,M,,*73
$GPGSV,1,1,00*79
$GPGGA,000312.800,,,,,0,00,,,M,,M,,*70
$GPGSV,1,1,00*79
$GPGGA,000313.800,,,,,0,00,,,M,,M,,*71
$GPGSV,1,1,00*79
$GPGGA,000314.800,,,,,0,00,,,M,,M,,*76
$GPGSV,1,1,00*79
$GPGGA,000315.800,,,,,0,00,,,M,,M,,*77
$GPGSV,1,1,00*79
$GPGGA,000316.800,,,,,0,00,,,M,,M,,*74
$GPGSV,1,1,00*79
$GPGGA,000317.800,,,,,0,00,,,M,,M,,*75
$GPGSV,1,1,00*79
$GPGGA,000318.800,,,,,0,00,,,M,,M,,*7A
$GPGSV,1,1,00*79
$GPGGA,000319.800,,,,,0,00,,,M,,M,,*7B
$GPGSV,1,1,00*79
$GPGGA,000320.800,,,,,0,00,,,M,,M,,*71
$GPGSV,1,1,01,23,,,36*7C
$GPGGA,000321.800,,,,,0,00,,,M,,M,,*70
$GPGSV,1,1,01,23,,,34*7E
$GPGGA,000322.800,,,,,0,00,,,M,,M,,*73
$GPGSV,1,1,01,23,,,36*7C
$GPGGA,000323.800,,,,,0,00,,,M,,M,,*72
$GPGSV,1,1,01,23,,,31*7B
$GPGGA,000324.800,,,,,0,00,,,M,,M,,*75
$GPGSV,1,1,01,23,,,33*79
$GPGGA,000325.800,,,,,0,00,,,M,,M,,*74
$GPGSV,1,1,02,23,,,32,22,,,34*7C
$GPGGA,000326.800,,,,,0,00,,,M,,M,,*77
$GPGSV,1,1,02,23,,,31,22,,,37*7C
$GPGGA,000327.800,,,,,0,00,,,M,,M,,*76
$GPGSV,1,1,02,23,,,32,22,,,35*7D
$GPGGA,000328.800,,,,,0,00,,,M,,M,,*79
$GPGSV,1,1,02,23,,,33,22,,,32*7B
$GPGGA,000329.800,,,,,0,00,,,M,,M,,*78
$GPGSV,1,1,02,23,,,34,22,,,33*7D
$GPGGA,000330.800,,,,,0,00,,,M,,M,,*70
$GPGSV,1,1,02,23,,,33,22,,,38*71
$GPGGA,000331.800,,,,,0,00,,,M,,M,,*71
$GPGSV,1,1,02,23,,,41,22,,,37*7B
$GPGGA,000332.800,,,,,0,00,,,M,,M,,*72
$GPGSV,1,1,02,23,,,40,22,,,30*7D
$GPGGA,000333.800,,,,,0,00,,,M,,M,,*73
$GPGSV,1,1,02,23,,,40,22,,,32*7F
$GPGGA,000334.800,,,,,0,00,,,M,,M,,*74
$GPGSV,1,1,03,23,,,40,22,,,39,07,,,43*75
$GPGGA,000335.780,,,,,0,00,,,M,,M,,*72
$GPGSV,1,1,03,23,,,39,22,,,39,07,,,43*7B
$GPGGA,000336.780,,,,,0,00,,,M,,M,,*71
$GPGSV,1,1,04,23,,,39,22,,,38,07,,,42,26,,,29*73
$GPGGA,141938.090,,,,,0,00,,,M,,M,,*77
$GPGSV,1,1,04,23,,,38,22,,,37,07,,,41,26,,,31*77
$GPGGA,141939.090,,,,,0,00,,,M,,M,,*76
$GPGSV,1,1,04,23,,,37,22,,,37,07,,,42,26,,,32*78
$GPGGA,141940.090,,,,,0,00,,,M,,M,,*78
$GPGSV,1,1,04,23,,,37,22,,,27,07,,,42,26,,,33*78
$GPGGA,141941.090,,,,,0,00,,,M,,M,,*79
$GPGSV,1,1,04,23,,,38,22,,,38,07,,,43,26,,,26*7C
$GPGGA,141942.090,,,,,0,00,,,M,,M,,*7A
$GPGSV,1,1,04,23,,,39,22,,,31,07,,,43,26,,,22*70
$GPGGA,141942.310,,,,,0,00,,,M,,M,,*71
$GPGSV,1,1,04,23,,,39,22,,,31,07,,,43,26,,,21*73
$GPGGA,141943.310,,,,,0,00,,,M,,M,,*70
$GPGSV,2,1,05,23,,,40,22,,,31,07,,,43,26,,,23*7D
$GPGSV,2,2,05,03,,,32*7E
$GPGGA,141944.310,,,,,0,00,,,M,,M,,*77
$GPGSV,2,1,06,23,,,40,22,,,29,07,,,43,26,,,32*77
$GPGSV,2,2,06,03,,,34,27,,,35*78
$GPGGA,141945.310,,,,,0,00,,,M,,M,,*76
$GPGSV,2,1,06,23,,,40,22,,,21,07,,,43,26,,,32*7F
$GPGSV,2,2,06,03,,,34,27,,,35*78
$GPGGA,141946.310,,,,,0,00,,,M,,M,,*75
$GPGSV,2,1,06,23,,,40,22,,,32,07,,,43,26,,,32*7D
$GPGSV,2,2,06,03,,,37,27,,,34*7A
$GPGGA,141947.310,,,,,0,00,,,M,,M,,*74
$GPGSV,2,1,06,23,,,32,22,,,44,07,,,42,26,,,32*78
$GPGSV,2,2,06,03,,,39,27,,,36*76
$GPGGA,141948.089,,,,,0,00,,,M,,M,,*78
$GPGSV,2,1,06,23,,,34,22,,,43,07,,,40,26,,,32*7B
$GPGSV,2,2,06,03,,,41,27,,,37*78
$GPGGA,141948.309,,,,,0,00,,,M,,M,,*73
$GPGSV,2,1,06,23,,,35,22,,,41,07,,,39,26,,,32*76
$GPGSV,2,2,06,03,,,39,27,,,36*76
$GPGGA,141949.309,,,,,0,00,,,M,,M,,*72
$GPGSV,2,1,06,23,,,36,22,,,41,07,,,39,26,,,31*76
$GPGSV,2,2,06,03,,,38,27,,,37*76
$GPGGA,141950.309,,,,,0,00,,,M,,M,,*7A
$GPGSV,2,1,06,23,,,36,22,,,41,07,,,38,26,,,32*74
$GPGSV,2,2,06,03,,,38,27,,,37*76
$GPGGA,141951.309,,,,,0,00,,,M,,M,,*7B
$GPGSV,2,1,06,23,,,36,22,,,41,07,,,37,26,,,32*7B
$GPGSV,2,2,06,03,,,38,27,,,37*76
$GPGGA,141952.309,,,,,0,00,,,M,,M,,*78
$GPGSV,2,1,06,23,,,35,22,,,40,07,,,37,26,,,32*79
$GPGSV,2,2,06,03,,,38,27,,,38*79
$GPGGA,141953.309,,,,,0,00,,,M,,M,,*79
$GPGSV,2,1,06,23,,,35,22,,,40,07,,,37,26,,,31*7A
$GPGSV,2,2,06,03,,,37,27,,,39*77
$GPGGA,141954.100,,,,,0,00,,,M,,M,,*75
$GPGSV,2,1,06,23,,,35,22,,,40,07,,,38,26,,,31*75
$GPGSV,2,2,06,03,,,38,27,,,39*78
$GPGGA,141955.100,,,,,0,00,,,M,,M,,*74
$GPGSV,2,1,06,23,,,35,22,,,41,07,,,38,26,,,31*74
$GPGSV,2,2,06,03,,,39,27,,,37*77
$GPGGA,141956.100,,,,,0,00,,,M,,M,,*77
$GPGSV,2,1,06,23,,,35,22,,,42,07,,,38,26,,,30*76
$GPGSV,2,2,06,03,,,39,27,,,37*77
$GPGGA,141957.100,,,,,0,00,,,M,,M,,*76
$GPGSV,2,1,06,23,,,36,22,,,43,07,,,37,26,,,23*79
$GPGSV,2,2,06,03,,,39,27,,,37*77
$GPGGA,141958.100,,,,,0,00,,,M,,M,,*79
$GPGSV,2,1,06,23,,,35,22,,,33,07,,,39,26,,,33*72
$GPGSV,2,2,06,03,,,40,27,,,37*79
$GPGGA,141959.100,,,,,0,00,,,M,,M,,*78
$GPGSV,2,1,06,23,,,35,22,,,42,07,,,40,26,,,31*78
$GPGSV,2,2,06,03,,,39,27,,,37*77
$GPGGA,142000.100,,,,,0,00,,,M,,M,,*7E
$GPGSV,2,1,06,23,,,34,22,,,42,07,,,40,26,,,30*78
$GPGSV,2,2,06,03,,,39,27,,,36*76
$GPGGA,142001.100,,,,,0,00,,,M,,M,,*7F
$GPGSV,2,1,06,23,,,35,22,,,28,07,,,33,26,,,41*77
$GPGSV,2,2,06,03,,,41,27,,,36*79
$GPGGA,142002.100,,,,,0,00,,,M,,M,,*7C
$GPGSV,2,1,06,23,,,35,22,,,39,07,,,33,26,,,40*76
$GPGSV,2,2,06,03,,,29,27,,,35*74
$GPGGA,142003.100,,,,,0,00,,,M,,M,,*7D
$GPGSV,2,1,06,23,,,34,22,,,39,07,,,32,26,,,40*76
$GPGSV,2,2,06,03,,,29,27,,,34*75
$GPGGA,142004.100,,,,,0,00,,,M,,M,,*7A
$GPGSV,2,1,06,23,,,35,22,,,37,07,,,33,26,,,40*78
$GPGSV,2,2,06,03,,,43,27,,,34*79
$GPGGA,142005.100,,,,,0,00,,,M,,M,,*7B
$GPGSV,2,1,06,23,,,37,22,,,37,07,,,33,26,,,39*74
$GPGSV,2,2,06,03,,,43,27,,,41*7B
$GPGGA,142006.086,,,,,0,00,,,M,,M,,*77
$GPGSV,2,1,06,23,,,37,22,,,37,07,,,34,26,,,40*7D
$GPGSV,2,2,06,03,,,43,27,,,40*7A
$GPGGA,142006.306,,,,,0,00,,,M,,M,,*7C
$GPGSV,2,1,06,23,,,36,22,,,38,07,,,34,26,,,40*73
$GPGSV,2,2,06,03,,,43,27,,,39*74
$GPGGA,142007.306,,,,,0,00,,,M,,M,,*7D
$GPGSV,2,1,06,23,,,35,22,,,37,07,,,33,26,,,40*78
$GPGSV,2,2,06,03,,,35,27,,,39*75
$GPGGA,142008.306,,,,,0,00,,,M,,M,,*72
$GPGSV,2,1,06,23,,,35,22,,,39,07,,,33,26,,,40*76
$GPGSV,2,2,06,03,,,35,27,,,39*75
$GPGGA,142009.306,,,,,0,00,,,M,,M,,*73
$GPGSV,2,1,06,23,,,36,22,,,38,07,,,32,26,,,39*7B
$GPGSV,2,2,06,03,,,36,27,,,39*76
$GPGGA,142010.306,,,,,0,00,,,M,,M,,*7B
$GPGSV,2,1,06,23,,,37,22,,,38,07,,,40,26,,,39*7F
$GPGSV,2,2,06,03,,,44,27,,,38*72
$GPGGA,142011.306,,,,,0,00,,,M,,M,,*7A
$GPGSV,2,1,06,23,,,37,22,,,38,07,,,40,26,,,38*7E
$GPGSV,2,2,06,03,,,45,27,,,38*73
$GPGGA,142012.092,,,,,0,00,,,M,,M,,*77
$GPGSV,2,1,06,23,,,37,22,,,37,07,,,40,26,,,38*71
$GPGSV,2,2,06,03,,,45,27,,,38*73
$GPGGA,142012.312,,,,,0,00,,,M,,M,,*7C
$GPGSV,2,1,06,23,,,37,22,,,36,07,,,38,26,,,38*7F
$GPGSV,2,2,06,03,,,45,27,,,37*7C
$GPGGA,142013.312,,,,,0,00,,,M,,M,,*7D
$GPGSV,2,1,06,23,,,38,22,,,37,07,,,37,26,,,39*7F
$GPGSV,2,2,06,03,,,45,27,,,38*73
$GPGGA,142014.312,,,,,0,00,,,M,,M,,*7A
$GPGSV,2,1,06,23,,,38,22,,,36,07,,,36,26,,,40*71
$GPGSV,2,2,06,03,,,45,27,,,38*73
$GPGGA,142015.312,,,,,0,00,,,M,,M,,*7B
$GPGSV,2,1,06,23,,,38,22,,,38,07,,,34,26,,,41*7C
$GPGSV,2,2,06,03,,,44,27,,,37*7D
$GPGGA,142016.312,,,,,0,00,,,M,,M,,*78
$GPGSV,2,1,06,23,,,37,22,,,45,07,,,35,26,,,42*7B
$GPGSV,2,2,06,03,,,43,27,,,37*7A
$GPGGA,142017.312,,,,,0,00,,,M,,M,,*79
$GPGSV,2,1,06,23,,,36,22,,,44,07,,,37,26,,,41*7A
$GPGSV,2,2,06,03,,,35,27,,,37*7B
$GPGGA,142018.092,,,,,0,00,,,M,,M,,*7D
$GPGSV,2,1,06,23,,,37,22,,,43,07,,,38,26,,,40*72
$GPGSV,2,2,06,03,,,44,27,,,27*7C
$GPGGA,142018.312,,,,,0,00,,,M,,M,,*76
$GPGSV,2,1,06,23,,,36,22,,,42,07,,,39,26,,,40*73
$GPGSV,2,2,06,03,,,43,27,,,36*7B
$GPGGA,142019.312,,,,,0,00,,,M,,M,,*77
$GPGSV,2,1,07,23,,,37,22,,,41,07,,,39,26,,,40*70
$GPGSV,2,2,07,03,,,29,27,,,38,09,,,40*75
$GPGGA,142020.312,,,,,0,00,,,M,,M,,*7D
$GPGSV,2,1,07,23,,,36,22,,,42,07,,,41,26,,,40*7D
$GPGSV,2,2,07,03,,,42,27,,,39,09,,,27*78
$GPGGA,142021.312,,,,,0,00,,,M,,M,,*7C
$GPGSV,2,1,07,23,,,36,22,,,42,07,,,42,26,,,40*7E
$GPGSV,2,2,07,03,,,42,27,,,38,09,,,23*7D
$GPGGA,142022.312,,,,,0,00,,,M,,M,,*7F
$GPGSV,2,1,07,23,,,35,22,,,43,07,,,43,26,,,39*73
$GPGSV,2,2,07,03,,,42,27,,,37,09,,,20*71
$GPGGA,142023.312,,,,,0,00,,,M,,M,,*7E
$GPGSV,2,1,06,23,,,35,22,,,43,07,,,44,26,,,39*75
$GPGSV,2,2,06,03,,,42,27,,,37*7B
$GPGGA,142024.103,,,,,0,00,,,M,,M,,*7B
$GPGSV,2,1,06,23,,,35,22,,,42,07,,,43,26,,,38*72
$GPGSV,2,2,06,03,,,41,27,,,36*79
$GPGGA,142025.103,,,,,0,00,,,M,,M,,*7A
$GPGSV,2,1,07,23,,,35,22,,,29,07,,,43,26,,,36*70
$GPGSV,2,2,07,03,,,42,27,,,37,04,,,33*7E
$GPGGA,142026.103,,,,,0,00,,,M,,M,,*79
$GPGSV,2,1,08,23,,,36,22,,,42,07,,,43,26,,,36*71
$GPGSV,2,2,08,03,,,43,27,,,37,04,,,24,31,,,39*7E
$GPGGA,142027.103,,,,,0,00,,,M,,M,,*78
$GPGSV,2,1,08,23,,,37,22,,,40,07,,,41,26,,,37*71
$GPGSV,2,2,08,03,,,43,27,,,36,04,,,20,31,,,37*75
$GPGGA,142028.103,,,,,0,00,,,M,,M,,*77
$GPGSV,2,1,08,23,,,38,22,,,33,07,,,40,26,,,38*74
$GPGSV,2,2,08,03,,,43,27,,,36,04,,,31,31,,,35*77
$GPGGA,142029.103,,,,,0,00,,,M,,M,,*76
$GPGSV,2,1,08,23,,,30,22,,,32,07,,,39,26,,,38*73
$GPGSV,2,2,08,03,,,42,27,,,36,04,,,27,31,,,35*71
$GPGGA,142030.103,,,,,0,00,,,M,,M,,*7E
$GPGSV,2,1,08,23,,,38,22,,,34,07,,,39,26,,,23*77
$GPGSV,2,2,08,03,,,40,27,,,34,04,,,40,31,,,24*70
$GPGGA,142031.103,,,,,0,00,,,M,,M,,*7F
$GPGSV,2,1,08,23,,,38,22,,,34,07,,,41,26,,,25*7E
$GPGSV,2,2,08,03,,,40,27,,,21,04,,,40,31,,,21*71
$GPGGA,142032.103,,,,,0,00,,,M,,M,,*7C
$GPGSV,2,1,08,23,,,38,22,,,33,07,,,40,26,,,42*79
$GPGSV,2,2,08,03,,,39,27,,,20,04,,,39,31,,,33*73
$GPGGA,142033.103,,,,,0,00,,,M,,M,,*7D
$GPGSV,2,1,08,23,,,38,22,,,34,07,,,41,26,,,40*7D
$GPGSV,2,2,08,03,,,38,27,,,31,04,,,38,31,,,35*75
$GPGGA,142034.103,,,,,0,00,,,M,,M,,*7A
$GPGSV,3,1,09,23,,,38,22,,,33,07,,,42,26,,,40*79
$GPGSV,3,2,09,03,,,38,27,,,32,04,,,37,31,,,37*7B
$GPGSV,3,3,09,09,,,42*7F
$GPGGA,142035.103,,,,,0,00,,,M,,M,,*7B
$GPGSV,3,1,09,23,,,38,22,,,34,07,,,42,26,,,39*70
$GPGSV,3,2,09,03,,,37,27,,,33,04,,,36,31,,,38*7B
$GPGSV,3,3,09,09,,,42*7F
$GPGGA,142036.086,,,,,0,00,,,M,,M,,*74
$GPGSV,3,1,09,23,,,38,22,,,35,07,,,41,26,,,38*73
$GPGSV,3,2,09,03,,,38,27,,,33,04,,,36,31,,,31*7D
$GPGSV,3,3,09,09,,,40*7D
$GPGGA,142036.306,,,,,0,00,,,M,,M,,*7F
$GPGSV,3,1,09,23,,,37,22,,,36,07,,,41,26,,,38*7F
$GPGSV,3,2,09,03,,,38,27,,,25,04,,,35,31,,,31*79
$GPGSV,3,3,09,09,,,38*72
$GPGGA,142037.306,,,,,0,00,,,M,,M,,*7E
$GPGSV,3,1,09,23,,,38,22,,,35,07,,,40,26,,,38*72
$GPGSV,3,2,09,03,,,36,27,,,23,04,,,37,31,,,32*70
$GPGSV,3,3,09,09,,,41*7C
$GPGGA,142038.306,,,,,0,00,,,M,,M,,*71
$GPGSV,3,1,09,23,,,40,22,,,28,07,,,39,26,,,38*7F
$GPGSV,3,2,09,03,,,34,27,,,23,04,,,38,31,,,34*7B
$GPGSV,3,3,09,09,,,32*78
$GPGGA,142039.306,,,,,0,00,,,M,,M,,*70
$GPGSV,3,1,09,23,,,41,22,,,27,07,,,39,26,,,38*71
$GPGSV,3,2,09,03,,,34,27,,,23,04,,,37,31,,,36*76
$GPGSV,3,3,09,09,,,30*7A
$GPGGA,142040.306,,,,,0,00,,,M,,M,,*7E
$GPGSV,3,1,09,23,,,42,22,,,26,07,,,40,26,,,39*7C
$GPGSV,3,2,09,03,,,34,27,,,23,04,,,30,31,,,38*7F
$GPGSV,3,3,09,09,,,30*7A
$GPGGA,142041.306,,,,,0,00,,,M,,M,,*7F
$GPGSV,3,1,09,23,,,43,22,,,25,07,,,40,26,,,39*7E
$GPGSV,3,2,09,03,,,34,27,,,23,04,,,31,31,,,39*7F
$GPGSV,3,3,09,09,,,30*7A
$GPGGA,142042.097,,,,,0,00,,,M,,M,,*77
$GPGSV,3,1,09,23,,,43,22,,,24,07,,,41,26,,,32*75
$GPGSV,3,2,09,03,,,33,27,,,22,04,,,39,31,,,39*71
$GPGSV,3,3,09,09,,,30*7A
$GPGGA,142042.317,,,,,0,00,,,M,,M,,*7C
$GPGSV,3,1,09,23,,,43,22,,,24,07,,,41,26,,,32*75
$GPGSV,3,2,09,03,,,32,27,,,21,04,,,38,31,,,39*72
$GPGSV,3,3,09,09,,,30*7A
$GPGGA,142043.317,,,,,0,00,,,M,,M,,*7D
$GPGSV,3,1,09,23,,,43,22,,,25,07,,,41,26,,,33*75
$GPGSV,3,2,09,03,,,32,27,,,21,04,,,38,31,,,39*72
$GPGSV,3,3,09,09,,,30*7A
$GPGGA,142044.317,,,,,0,00,,,M,,M,,*7A
$GPGSV,3,1,09,23,,,42,22,,,26,07,,,41,26,,,31*75
$GPGSV,3,2,09,03,,,33,27,,,23,04,,,39,31,,,40*7E
$GPGSV,3,3,09,09,,,29*72
$GPGGA,142045.317,,,,,0,00,,,M,,M,,*7B
$GPGSV,3,1,09,23,,,42,22,,,26,07,,,41,26,,,33*77
$GPGSV,3,2,09,03,,,33,27,,,24,04,,,38,31,,,40*78
$GPGSV,3,3,09,09,,,28*73
$GPGGA,142046.317,,,,,0,00,,,M,,M,,*78
$GPGSV,3,1,09,23,,,43,22,,,28,07,,,41,26,,,34*7F
$GPGSV,3,2,09,03,,,32,27,,,24,04,,,37,31,,,41*77
$GPGSV,3,3,09,09,,,29*72
$GPGGA,142047.317,,,,,0,00,,,M,,M,,*79
$GPGSV,3,1,09,23,,,43,22,,,29,07,,,40,26,,,33*78
$GPGSV,3,2,09,03,,,31,27,,,23,04,,,37,31,,,41*73
$GPGSV,3,3,09,09,,,31*7B
$GPGGA,142048.097,,,,,0,00,,,M,,M,,*7D
$GPGSV,3,1,09,23,,,43,22,,,28,07,,,40,26,,,32*78
$GPGSV,3,2,09,03,,,32,27,,,24,04,,,36,31,,,40*77
$GPGSV,3,3,09,09,,,31*7B
$GPGGA,142048.317,,,,,0,00,,,M,,M,,*76
$GPGSV,3,1,09,23,,,42,22,,,27,07,,,40,26,,,31*75
$GPGSV,3,2,09,03,,,32,27,,,24,04,,,36,31,,,39*79
$GPGSV,3,3,09,09,,,32*78
$GPGGA,142049.317,,,,,0,00,,,M,,M,,*77
$GPGSV,2,1,08,23,,,41,22,,,35,07,,,41,26,,,40*72
$GPGSV,2,2,08,03,,,34,04,,,36,31,,,29,09,,,34*73
$GPGGA,142050.317,,,,,0,00,,,M,,M,,*7F
$GPGSV,3,1,09,23,,,41,22,,,33,07,,,41,26,,,38*7B
$GPGSV,3,2,09,03,,,32,27,,,21,04,,,37,31,,,31*75
$GPGSV,3,3,09,09,,,36*7C
$GPGGA,142051.317,,,,,0,00,,,M,,M,,*7E
$GPGSV,3,1,09,23,,,40,22,,,25,07,,,41,26,,,39*7C
$GPGSV,3,2,09,03,,,33,27,,,21,04,,,36,31,,,32*76
$GPGSV,3,3,09,09,,,37*7D
$GPGGA,142052.317,,,,,0,00,,,M,,M,,*7D
$GPGSV,3,1,09,23,,,40,22,,,26,07,,,41,26,,,39*7F
$GPGSV,3,2,09,03,,,35,27,,,25,04,,,29,31,,,32*7A
$GPGSV,3,3,09,09,,,36*7C
$GPGGA,142053.317,,,,,0,00,,,M,,M,,*7C
$GPGSV,3,1,09,23,,,40,22,,,35,07,,,41,26,,,40*73
$GPGSV,3,2,09,03,,,36,27,,,32,04,,,39,31,,,30*7C
$GPGSV,3,3,09,09,,,37*7D
$GPGGA,142054.086,,,,,0,00,,,M,,M,,*70
$GPGSV,3,1,09,23,,,39,22,,,35,07,,,42,26,,,40*7E
$GPGSV,3,2,09,03,,,36,27,,,34,04,,,38,31,,,28*72
$GPGSV,3,3,09,09,,,37*7D
$GPGGA,142054.307,,,,,0,00,,,M,,M,,*7A
$GPGSV,3,1,09,23,,,38,22,,,35,07,,,42,26,,,40*7F
$GPGSV,3,2,09,03,,,36,27,,,34,04,,,37,31,,,27*72
$GPGSV,3,3,09,09,,,37*7D
$GPGGA,142055.307,,,,,0,00,,,M,,M,,*7B
$GPGSV,3,1,09,23,,,38,22,,,37,07,,,42,26,,,39*73
$GPGSV,3,2,09,03,,,36,27,,,34,04,,,38,31,,,20*7A
$GPGSV,3,3,09,09,,,38*72
$GPGGA,142056.307,,,,,0,00,,,M,,M,,*78
$GPGSV,3,1,09,23,,,38,22,,,36,07,,,42,26,,,31*7A
$GPGSV,3,2,09,03,,,36,27,,,32,04,,,39,31,,,21*7C
$GPGSV,3,3,09,09,,,39*73
$GPGGA,142057.307,,,,,0,00,,,M,,M,,*79
$GPGSV,3,1,09,23,,,39,22,,,29,07,,,41,26,,,30*77
$GPGSV,3,2,09,03,,,34,27,,,18,04,,,39,31,,,35*73
$GPGSV,3,3,09,09,,,39*73
$GPGGA,142058.307,,,,,0,00,,,M,,M,,*76
$GPGSV,3,1,09,23,,,40,22,,,28,07,,,41,26,,,31*79
$GPGSV,3,2,09,03,,,33,27,,,17,04,,,39,31,,,35*7B
$GPGSV,3,3,09,09,,,38*72
$GPGGA,142059.307,,,,,0,00,,,M,,M,,*77
$GPGSV,3,1,09,23,,,40,22,,,28,07,,,41,26,,,32*7A
$GPGSV,3,2,09,03,,,33,27,,,16,04,,,39,31,,,35*7A
$GPGSV,3,3,09,09,,,37*7D
$GPGGA,142100.090,,,,,0,03,,,M,,M,,*74
$GPGSV,3,1,10,23,,,41,22,,,27,07,,,41,26,,,33*7D
$GPGSV,3,2,10,03,,,33,27,,,15,04,,,39,31,,,35*71
$GPGSV,3,3,10,09,,,37,16,,,32*73
$GPGGA,142100.310,,,,,0,03,,,M,,M,,*7F
$GPGSV,3,1,10,23,80,329,41,07,28,268,40,22,17,184,26,26,,,34*47
$GPGSV,3,2,10,03,,,33,27,,,14,04,,,39,31,,,35*70
$GPGSV,3,3,10,09,,,37,16,,,34*75
$GPGGA,142102.000,,,,,0,03,,,M,,M,,*7F
$GPGSV,3,1,09,23,80,329,41,07,28,268,40,22,17,184,33,26,,,34*4B
$GPGSV,3,2,09,03,,,31,27,,,15,31,,,34,09,,,37*79
$GPGSV,3,3,09,16,,,37*73
$GPGGA,142103.000,4000.8870,N,10515.1803,W,1,03,2.25,170.6,M,-20.6,M,,*5D
$GPGSV,3,1,09,23,80,329,41,07,28,268,40,22,17,184,31,26,,,35*48
$GPGSV,3,2,09,03,,,31,27,,,16,31,,,34,09,,,37*7A
$GPGSV,3,3,09,16,,,37*73
$GPGGA,142104.000,4000.8868,N,10515.1804,W,1,03,2.25,170.7,M,-20.6,M,,*55
$GPGSV,3,1,09,23,80,329,41,07,28,268,40,22,17,184,29,26,,,35*41
$GPGSV,3,2,09,03,,,31,27,,,16,31,,,33,09,,,37*7D
$GPGSV,3,3,09,16,,,37*73
$GPGGA,142105.000,4000.8866,N,10515.1803,W,1,03,2.25,170.6,M,-20.6,M,,*5C
$GPGSV,3,1,09,23,80,329,41,07,28,268,40,22,17,184,28,26,,,36*43
$GPGSV,3,2,09,03,,,31,27,,,16,31,,,33,09,,,37*7D
$GPGSV,3,3,09,16,,,37*73
$GPGGA,142106.000,4000.8864,N,10515.1803,W,1,03,2.25,170.6,M,-20.6,M,,*5D
$GPGSV,3,1,09,23,80,329,41,07,28,268,40,22,17,184,26,26,,,36*4D
$GPGSV,3,2,09,03,,,31,27,,,17,31,,,34,09,,,28*75
$GPGSV,3,3,09,16,,,36*72
$GPGGA,142106.217,4000.8862,N,10515.1805,W,1,03,2.25,170.6,M,-20.6,M,,*59
$GPGSV,3,1,09,23,80,329,39,07,28,268,39,22,17,184,24,26,,,35*4D
$GPGSV,3,2,09,03,,,30,27,,,18,31,,,34,09,,,27*74
$GPGSV,3,3,09,16,,,35*71
$GPGGA,142108.000,4000.8859,N,10515.1803,W,1,03,2.25,170.6,M,-20.6,M,,*5D
$GPGSV,3,1,09,23,80,329,39,07,28,268,39,22,17,184,23,26,,,43*4B
$GPGSV,3,2,09,03,,,29,27,,,19,31,,,25,09,,,40*7C
$GPGSV,3,3,09,16,,,26*73
$GPGGA,142109.000,4000.8858,N,10515.1801,W,1,03,2.25,170.7,M,-20.6,M,,*5E
$GPGSV,2,1,08,23,80,329,39,07,28,268,39,22,17,184,23,26,,,43*4B
$GPGSV,2,2,08,03,,,28,27,,,20,09,,,40,16,,,26*71
$GPGGA,142110.000,4000.8864,N,10515.1800,W,1,03,2.25,170.6,M,-20.6,M,,*59
$GPGSV,3,1,09,23,80,329,38,07,28,268,41,22,17,184,32,26,,,34*45
$GPGSV,3,2,09,03,,,29,27,,,19,31,,,29,09,,,41*71
$GPGSV,3,3,09,16,,,27*72
$GPGGA,142111.000,4000.8866,N,10515.1798,W,1,03,2.25,170.6,M,-20.6,M,,*54
$GPGSV,3,1,09,23,80,329,38,07,28,268,40,22,17,184,30,26,,,42*47
$GPGSV,3,2,09,03,,,29,27,,,19,31,,,35,09,,,42*7F
$GPGSV,3,3,09,16,,,34*70
$GPGGA,142112.000,4000.8868,N,10515.1797,W,1,03,2.25,170.6,M,-20.6,M,,*56
$GPGSV,2,1,08,23,80,329,38,07,28,268,41,22,17,184,28,26,,,33*49
$GPGSV,2,2,08,03,,,30,27,,,19,09,,,42,16,,,33*74
$GPGGA,142112.216,4000.8869,N,10515.1797,W,1,03,72.16,170.6,M,-20.6,M,,*65
$GPGSV,3,1,09,23,80,329,38,07,28,268,41,22,17,184,26,08,05,158,*72
$GPGSV,3,2,09,26,,,34,03,,,30,27,,,20,09,,,41*79
$GPGSV,3,3,09,16,,,33*77
$GPGGA,142114.000,4000.8871,N,10515.1796,W,1,03,72.17,170.6,M,-20.6,M,,*6F
$GPGSV,3,1,10,23,80,329,38,07,28,268,42,22,17,184,25,08,05,158,*7A
$GPGSV,3,2,10,26,,,41,03,,,30,27,,,22,31,,,29*74
$GPGSV,3,3,10,09,,,41,16,,,34*74
$GPGGA,142115.000,4000.8869,N,10515.1795,W,1,03,72.18,170.6,M,-20.6,M,,*6B
$GPGSV,3,1,10,23,80,329,38,07,28,268,43,22,17,184,24,08,05,158,*7A
$GPGSV,3,2,10,26,,,41,03,,,30,27,,,22,31,,,31*7D
$GPGSV,3,3,10,09,,,41,16,,,35*75
$GPGGA,142116.000,4000.8869,N,10515.1794,W,1,03,2.25,170.6,M,-20.6,M,,*50
$GPGSV,3,1,10,23,80,329,38,07,28,268,44,22,17,184,22,08,05,158,*7B
$GPGSV,3,2,10,26,,,41,03,,,32,27,,,21,31,,,30*7D
$GPGSV,3,3,10,09,,,40,16,,,36*77
$GPGGA,142117.000,4000.8870,N,10515.1794,W,1,03,2.25,170.6,M,-20.6,M,,*59
$GPGSV,3,1,10,23,80,329,38,07,28,268,45,22,17,184,21,08,05,158,*79
$GPGSV,3,2,10,26,,,41,03,,,32,27,,,21,31,,,27*7B
$GPGSV,3,3,10,09,,,40,16,,,37*76
$GPGGA,142118.000,4000.8876,N,10515.1796,W,1,03,72.20,170.6,M,-20.6,M,,*60
$GPGSV,3,1,10,23,80,329,37,07,28,268,45,22,17,184,29,08,05,158,*7E
$GPGSV,3,2,10,26,,,41,03,,,32,27,,,22,31,,,24*7B
$GPGSV,3,3,10,09,,,42,16,,,36*75
$GPGGA,142118.216,,,,,0,04,,,M,,M,,*76
$GPGSV,3,1,10,23,80,329,30,09,43,311,42,03,33,197,31,07,28,268,43*7B
$GPGSV,3,2,10,22,17,184,28,08,05,158,,26,,,39,27,,,22*72
$GPGSV,3,3,10,31,,,28,16,,,29*7C
$GPGGA,142120.000,,,,,0,00,,,M,,M,,*7C
$GPGSV,3,1,10,23,80,329,31,09,43,311,41,03,33,197,33,07,28,268,45*7D
$GPGSV,3,2,10,22,17,184,36,08,05,158,,26,,,30,27,,,20*76
$GPGSV,3,3,10,31,,,26,16,,,39*73
$GPGGA,142121.000,,,,,0,05,,,M,,M,,*78
$GPGSV,2,1,06,23,80,329,33,09,43,311,40,03,33,197,33,07,28,268,43*7E
$GPGSV,2,2,06,22,17,184,36,08,05,158,*70
$GPGGA,142122.000,4000.3914,N,10515.6938,W,1,05,1.99,1614.4,M,-20.6,M,,*6C
$GPGSV,2,1,07,23,80,329,35,09,43,311,41,51,43,183,,03,33,197,36*72
$GPGSV,2,2,07,07,28,268,45,22,17,184,33,08,05,158,*44
$GPGGA,142123.000,4000.3873,N,10515.6980,W,1,05,1.99,1627.8,M,-20.6,M,,*62
$GPGSV,2,1,07,23,80,329,37,09,43,311,44,51,43,183,,03,33,197,29*7B
$GPGSV,2,2,07,07,28,268,36,22,17,184,27,08,05,158,*45
$GPGGA,142124.000,4000.3847,N,10515.7020,W,1,05,1.99,1636.7,M,-20.6,M,,*6F
$GPGSV,2,1,07,23,80,329,32,09,43,311,46,51,43,183,,03,33,197,23*76
$GPGSV,2,2,07,07,28,268,45,22,17,184,30,08,05,158,*47
$GPGGA,142125.000,4000.3822,N,10515.7064,W,1,05,1.99,1646.1,M,-20.6,M,,*6C
$GPGSV,2,1,07,23,80,329,35,09,43,311,43,51,43,183,,03,33,197,20*77
$GPGSV,2,2,07,07,28,268,46,22,17,184,34,08,05,158,*40
$GPGGA,142126.000,4000.3806,N,10515.7094,W,1,05,1.99,1652.8,M,-20.6,M,,*6A
$GPGSV,2,1,07,23,80,329,35,09,43,311,42,51,43,183,,03,33,197,20*76
$GPGSV,2,2,07,07,28,268,46,22,17,184,27,08,05,158,*42
$GPGGA,142127.000,4000.3791,N,10515.7136,W,1,05,1.99,1662.6,M,-20.6,M,,*6E
$GPGSV,2,1,07,23,80,329,36,09,43,311,42,51,43,183,,03,33,197,28*7D
$GPGSV,2,2,07,07,28,268,45,22,17,184,31,08,05,158,*46
$GPGGA,142128.000,4000.3786,N,10515.7150,W,1,05,1.99,1665.5,M,-20.6,M,,*63
$GPGSV,2,1,07,23,80,329,37,09,43,311,43,51,43,183,,03,33,197,28*7D
$GPGSV,2,2,07,07,28,268,44,22,17,184,36,08,05,158,*40
$GPGGA,142129.000,4000.3790,N,10515.7147,W,1,05,1.99,1664.3,M,-20.6,M,,*64
$GPGSV,2,1,08,23,80,329,38,09,43,311,43,51,43,183,33,03,33,197,30*74
$GPGSV,2,2,08,07,28,268,43,22,17,184,29,08,05,158,,16,,,37*45
$GPGGA,142130.000,4000.3796,N,10515.7158,W,1,05,1.99,1665.6,M,-20.6,M,,*60
$GPGSV,2,1,08,23,80,329,38,09,43,311,42,51,43,183,36,03,33,197,37*77
$GPGSV,2,2,08,07,28,268,43,22,17,184,30,08,05,158,,16,,,38*42
$GPGGA,142131.000,4000.3798,N,10515.7164,W,1,05,1.99,1665.9,M,-20.6,M,,*6F
$GPGSV,2,1,08,23,80,329,29,09,43,311,40,51,43,183,30,03,33,197,36*72
$GPGSV,2,2,08,07,28,268,43,22,17,184,31,08,05,158,,16,,,35*4E
$GPGGA,142132.000,4000.3796,N,10515.7172,W,1,05,1.99,1666.6,M,-20.6,M,,*69
$GPGSV,2,1,08,23,80,329,36,09,43,311,41,51,43,183,29,03,33,197,24*76
$GPGSV,2,2,08,07,28,268,43,22,17,184,31,08,05,158,,16,,,22*48
$GPGGA,142133.000,4000.3794,N,10515.7174,W,1,05,1.99,1667.2,M,-20.6,M,,*69
$GPGSV,3,1,09,23,80,329,37,09,43,311,40,51,43,183,30,03,33,197,24*7E
$GPGSV,3,2,09,07,28,268,42,22,17,184,30,08,05,158,,27,,,28*40
$GPGSV,3,3,09,16,,,28*7D
$GPGGA,142134.000,4000.3792,N,10515.7169,W,1,05,1.99,1666.9,M,-20.6,M,,*6E
$GPGSV,3,1,09,23,80,329,37,09,43,311,40,51,43,183,30,03,33,197,24*7E
$GPGSV,3,2,09,07,28,268,44,22,17,184,31,08,05,158,,27,,,25*4A
$GPGSV,3,3,09,16,,,26*73
$GPGGA,142135.000,4000.3789,N,10515.7166,W,1,05,1.99,1667.0,M,-20.6,M,,*62
$GPGSV,3,1,09,23,80,329,37,09,43,311,41,51,43,183,29,03,33,197,25*76
$GPGSV,3,2,09,07,28,268,44,22,17,184,32,08,05,158,,27,,,25*49
$GPGSV,3,3,09,16,,,28*7D
$GPGGA,142136.000,4000.3789,N,10515.7165,W,1,05,1.99,1667.0,M,-20.6,M,,*62
$GPGSV,3,1,09,23,80,329,38,09,43,311,39,48,35,219,,03,33,197,32*72
$GPGSV,3,2,09,07,28,268,44,22,17,184,31,08,05,158,23,27,,,25*4B
$GPGSV,3,3,09,16,,,28*7D
$GPGGA,142137.000,4000.3788,N,10515.7159,W,1,05,1.99,1666.3,M,-20.6,M,,*6F
$GPGSV,3,1,10,23,80,329,38,09,43,311,40,48,35,219,30,03,33,197,32*77
$GPGSV,3,2,10,07,28,268,37,22,17,184,33,08,05,158,22,31,05,072,*74
$GPGSV,3,3,10,27,,,22,16,,,26*7E
$GPGGA,142138.000,4000.3789,N,10515.7151,W,1,05,1.99,1664.9,M,-20.6,M,,*61
$GPGSV,3,1,10,23,80,329,23,09,43,311,29,48,35,219,27,03,33,197,30*76
$GPGSV,3,2,10,07,28,268,39,22,17,184,33,08,05,158,21,31,05,072,34*7E
$GPGSV,3,3,10,27,,,22,16,,,28*70
$GPGGA,142139.000,4000.3790,N,10515.7145,W,1,05,1.99,1664.5,M,-20.6,M,,*61
$GPGSV,3,1,10,23,80,329,36,09,43,311,36,48,35,219,29,03,33,197,30*72
$GPGSV,3,2,10,07,28,268,39,22,17,184,32,08,05,158,,31,05,072,35*7D
$GPGSV,3,3,10,27,,,21,16,,,30*7A
$GPGGA,142140.000,4000.3792,N,10515.7141,W,1,05,1.99,1663.1,M,-20.6,M,,*6A
$GPGSV,3,1,10,23,80,329,37,09,43,311,36,48,35,219,32,03,33,197,39*70
$GPGSV,3,2,10,07,28,268,39,22,17,184,31,08,05,158,,31,05,072,26*7C
$GPGSV,3,3,10,27,,,20,16,,,30*7B
$GPGGA,142141.000,4000.3793,N,10515.7136,W,1,05,1.99,1661.9,M,-20.6,M,,*60
$GPGSV,3,1,10,23,80,329,35,09,43,311,37,48,35,219,37,03,33,197,32*7D
$GPGSV,3,2,10,07,28,268,38,22,17,184,38,08,05,158,,31,05,072,35*76
$GPGSV,3,3,10,27,,,19,16,,,31*70
$GPGGA,142142.000,4000.3794,N,10515.7135,W,1,05,1.99,1661.3,M,-20.6,M,,*6D
$GPGSV,3,1,10,23,80,329,35,09,43,311,38,48,35,219,27,03,33,197,33*72
$GPGSV,3,2,10,07,28,268,37,22,17,184,37,08,05,158,,31,05,072,28*7A
$GPGSV,3,3,10,27,,,27,16,,,33*7F
$GPGGA,142143.000,4000.3796,N,10515.7131,W,1,05,1.99,1660.8,M,-20.6,M,,*60
$GPGSV,3,1,11,23,80,329,37,09,43,311,38,48,35,219,32,03,33,197,35*73
$GPGSV,3,2,11,07,28,268,38,22,17,184,29,08,05,158,,31,05,072,30*72
$GPGSV,3,3,11,27,,,25,16,,,32,26,,,34*7E
$GPGGA,142144.000,4000.3797,N,10515.7124,W,1,05,1.99,1659.5,M,-20.6,M,,*65
$GPGSV,3,1,11,23,80,329,37,09,43,311,37,48,35,219,33,03,33,197,35*7D
$GPGSV,3,2,11,07,28,268,38,22,17,184,31,08,05,158,,31,05,072,31*7A
$GPGSV,3,3,11,27,,,24,16,,,31,26,,,28*71
$GPGGA,142145.000,4000.3797,N,10515.7122,W,1,05,1.99,1659.5,M,-20.6,M,,*62
$GPGSV,3,1,11,23,80,329,36,09,43,311,35,48,35,219,33,03,33,197,28*72
$GPGSV,3,2,11,07,28,268,39,22,17,184,32,08,05,158,,31,05,072,30*79
$GPGSV,3,3,11,27,,,23,16,,,32,26,,,33*7F
$GPGGA,142146.000,4000.3797,N,10515.7121,W,1,05,1.99,1659.5,M,-20.6,M,,*62
$GPGSV,3,1,11,23,80,329,36,09,43,311,42,48,35,219,32,03,33,197,28*73
$GPGSV,3,2,11,07,28,268,39,22,17,184,33,08,05,158,,31,05,072,31*79
$GPGSV,3,3,11,27,,,21,16,,,32,26,,,29*76
$GPGGA,142147.000,4000.3796,N,10515.7120,W,1,05,1.99,1659.2,M,-20.6,M,,*64
$GPGSV,3,1,11,23,80,329,38,09,43,311,42,48,35,219,32,03,33,197,29*7C
$GPGSV,3,2,11,07,28,269,38,22,17,184,32,08,05,158,,31,05,072,32*7B
$GPGSV,3,3,11,27,,,20,16,,,34,26,,,24*7C
$GPGGA,142148.000,4000.3793,N,10515.7121,W,1,05,1.99,1659.2,M,-20.6,M,,*6F
$GPGSV,3,1,11,23,80,329,39,09,43,311,42,48,35,219,31,03,33,197,19*7D
$GPGSV,3,2,11,07,28,269,37,22,17,184,32,08,05,158,18,31,05,072,33*7C
$GPGSV,3,3,11,27,,,19,16,,,34,26,,,37*74
$GPGGA,142149.000,4000.3791,N,10515.7121,W,1,05,1.99,1659.3,M,-20.6,M,,*6D
$GPGSV,3,1,11,23,80,329,31,09,43,311,43,48,35,219,33,03,33,197,36*7B
$GPGSV,3,2,11,07,28,269,36,22,17,184,33,08,05,158,17,31,05,072,34*74
$GPGSV,3,3,11,27,,,18,16,,,34,26,,,31*73
$GPGGA,142150.000,4000.3790,N,10515.7121,W,1,05,1.99,1659.3,M,-20.6,M,,*64
$GPGSV,3,1,11,23,80,329,31,09,43,311,43,48,35,219,34,03,33,197,36*7C
$GPGSV,3,2,11,07,28,269,36,22,17,184,33,08,05,158,16,31,05,072,35*74
$GPGSV,3,3,11,27,,,19,16,,,33,26,,,37*73
$GPGGA,142151.000,4000.3791,N,10515.7120,W,1,05,1.99,1659.3,M,-20.6,M,,*65
$GPGSV,3,1,11,23,80,329,31,09,43,311,43,51,43,183,,03,33,197,35*71
$GPGSV,3,2,11,07,28,269,36,22,17,184,32,08,05,158,,31,05,072,35*72
$GPGSV,3,3,11,27,,,20,16,,,33,26,,,33*7D
$GPGGA,142152.000,4000.3791,N,10515.7119,W,1,05,1.99,1659.3,M,-20.6,M,,*6C
$GPGSV,3,1,11,23,80,329,40,09,43,311,42,51,43,183,30,03,33,197,34*74
$GPGSV,3,2,11,07,28,269,37,22,17,184,23,08,05,158,,31,05,072,35*73
$GPGSV,3,3,11,27,,,20,16,,,34,26,,,37*7E
$GPGGA,142153.000,4000.3792,N,10515.7118,W,1,05,1.99,1659.3,M,-20.6,M,,*6F
$GPGSV,3,1,11,23,80,329,39,09,43,311,35,51,43,183,35,03,33,197,34*7F
$GPGSV,3,2,11,07,28,269,38,22,17,184,25,08,05,158,,31,05,072,35*7A
$GPGSV,3,3,11,27,,,20,16,,,35,26,,,37*7F
$GPGGA,142154.000,4000.3793,N,10515.7117,W,1,05,1.99,1659.3,M,-20.6,M,,*66
$GPGSV,3,1,11,23,80,329,39,09,43,311,37,51,43,183,28,03,33,197,34*71
$GPGSV,3,2,11,07,28,269,38,22,17,184,27,08,05,158,,31,05,072,36*7B
$GPGSV,3,3,11,27,,,19,16,,,35,26,,,38*7A
$GPGGA,142155.000,4000.3793,N,10515.7117,W,1,05,1.99,1659.3,M,-20.6,M,,*67
$GPGSV,3,1,11,23,80,329,40,09,43,311,38,51,43,183,29,03,33,197,33*76
$GPGSV,3,2,11,07,28,269,40,22,17,184,27,08,05,158,,31,05,072,35*77
$GPGSV,3,3,11,27,,,20,16,,,33,26,,,37*79
$GPGGA,142156.000,4000.3793,N,10515.7116,W,1,05,1.99,1659.3,M,-20.6,M,,*65
$GPGSV,3,1,11,23,80,329,39,09,43,311,39,51,43,183,27,03,33,197,32*76
$GPGSV,3,2,11,07,28,269,40,22,17,184,26,08,05,158,,31,05,072,36*75
$GPGSV,3,3,11,27,,,28,16,,,33,26,,,39*7F
$GPGGA,142157.000,4000.3795,N,10515.7115,W,1,05,1.99,1659.4,M,-20.6,M,,*66
$GPGSV,3,1,11,23,80,329,39,09,43,311,38,51,43,183,26,03,33,197,32*76
$GPGSV,3,2,11,07,28,269,29,22,17,184,19,08,05,158,,31,05,072,26*77
$GPGSV,3,3,11,27,,,28,16,,,34,26,,,38*79
$GPGGA,142158.000,4000.3798,N,10515.7113,W,1,05,1.99,1659.4,M,-20.6,M,,*62
$GPGSV,3,1,11,23,80,329,38,09,43,311,39,51,43,183,27,03,33,197,31*74
$GPGSV,3,2,11,07,28,269,38,22,17,184,21,08,05,158,,31,05,072,25*7F
$GPGSV,3,3,11,27,,,28,16,,,33,26,,,37*71
$GPGGA,142159.000,4000.3804,N,10515.7107,W,1,05,1.99,1659.3,M,-20.6,M,,*6B
$GPGSV,3,1,11,23,80,329,38,09,43,311,39,51,43,183,26,03,33,197,31*75
$GPGSV,3,2,11,07,28,269,39,22,17,184,23,08,05,158,,31,05,072,36*7E
$GPGSV,3,3,11,27,,,29,16,,,34,26,,,35*75
$GPGGA,142200.000,4000.3809,N,10515.7105,W,1,05,1.99,1659.1,M,-20.6,M,,*69
$GPGSV,3,1,11,23,80,329,38,09,43,311,39,51,43,183,26,03,33,197,32*76
$GPGSV,3,2,11,07,28,269,39,22,17,184,23,08,05,158,,31,05,072,34*7C
$GPGSV,3,3,11,27,,,30,16,,,35,26,,,37*7E
$GPGGA,142201.000,4000.3817,N,10515.7105,W,1,06,1.39,1658.8,M,-20.6,M,,*66
$GPGSV,3,1,11,23,80,329,38,16,66,080,35,09,43,311,40,51,43,183,26*7C
$GPGSV,3,2,11,03,33,197,34,07,28,269,39,22,17,184,25,08,05,158,*74
$GPGSV,3,3,11,31,05,072,25,27,,,29,26,,,38*4D
$GPGGA,142202.000,4000.3826,N,10515.7100,W,1,06,2.29,1658.2,M,-20.6,M,,*6A
$GPGSV,3,1,11,23,80,329,38,16,66,080,33,09,43,311,39,51,43,183,25*77
$GPGSV,3,2,11,03,33,197,34,07,28,269,40,22,17,184,32,08,05,158,*7C
$GPGSV,3,3,11,31,05,072,24,27,,,29,26,,,38*4C
$GPGGA,142203.000,4000.3835,N,10515.7097,W,1,06,2.29,1657.8,M,-20.6,M,,*63
$GPGSV,3,1,11,23,80,329,28,16,66,080,33,09,43,311,38,51,43,183,24*76
$GPGSV,3,2,11,03,33,197,34,07,28,269,41,22,17,184,32,08,05,158,*7D
$GPGSV,3,3,11,31,05,072,24,27,,,29,26,,,26*43
$GPGGA,142204.000,4000.3843,N,10515.7093,W,1,06,2.29,1657.3,M,-20.6,M,,*6A
$GPGSV,3,1,11,23,80,330,39,16,66,080,34,09,43,311,39,51,43,183,23*7F
$GPGSV,3,2,11,03,33,197,25,07,28,269,41,22,17,184,30,08,05,158,*7F
$GPGSV,3,3,11,31,05,072,24,27,,,28,26,,,39*4C
$GPGGA,142205.000,4000.3850,N,10515.7088,W,1,06,1.39,1657.0,M,-20.6,M,,*62
$GPGSV,3,1,11,23,80,330,39,16,66,080,33,09,43,311,39,51,43,183,22*79
$GPGSV,3,2,11,03,33,197,26,07,28,269,42,22,17,184,29,08,05,158,*77
$GPGSV,3,3,11,31,05,072,24,27,,,27,26,,,38*42
$GPGGA,142206.000,4000.3858,N,10515.7086,W,1,06,2.29,1656.7,M,-20.6,M,,*63
$GPGSV,3,1,11,23,80,330,38,16,66,080,34,09,43,311,40,51,43,183,*71
$GPGSV,3,2,11,03,33,197,28,07,28,269,42,22,17,184,28,08,05,158,*78
$GPGSV,3,3,11,31,05,072,25,27,,,26,26,,,31*4B
$GPGGA,142207.000,4000.3865,N,10515.7086,W,1,06,2.29,1656.6,M,-20.6,M,,*6D
$GPGSV,3,1,11,23,80,330,38,16,66,080,34,09,43,311,41,51,43,183,*70
$GPGSV,3,2,11,03,33,197,29,07,28,269,42,22,17,184,28,08,05,158,*79
$GPGSV,3,3,11,31,05,072,24,27,,,25,26,,,32*4A
$GPGGA,142208.000,4000.3873,N,10515.7087,W,1,06,2.29,1656.0,M,-20.6,M,,*62
$GPGSV,3,1,11,23,80,330,37,16,66,080,33,09,43,311,39,51,43,183,*77
$GPGSV,3,2,11,03,33,197,40,07,28,269,42,22,17,184,38,08,05,158,*77
$GPGSV,3,3,11,31,05,072,23,27,,,25,26,,,31*4E
$GPGGA,142209.000,4000.3880,N,10515.7087,W,1,06,1.39,1655.7,M,-20.6,M,,*69
$GPGSV,3,1,11,23,80,330,36,16,66,080,33,09,43,311,39,51,43,183,*76
$GPGSV,3,2,11,03,33,197,30,07,28,269,42,22,17,184,30,08,05,158,*78
$GPGSV,3,3,11,31,05,072,22,27,,,27,26,,,33*4F
$GPGGA,142210.000,4000.3886,N,10515.7087,W,1,06,2.29,1655.4,M,-20.6,M,,*66
$GPGSV,3,1,11,23,80,330,34,16,66,080,33,09,43,311,38,51,43,183,*75
$GPGSV,3,2,11,03,33,197,37,07,28,269,42,22,17,184,31,08,05,158,*7E
$GPGSV,3,3,11,31,05,072,20,27,,,20,26,,,32*4B
$GPGGA,142211.000,4000.3893,N,10515.7087,W,1,06,1.39,1655.3,M,-20.6,M,,*66
$GPGSV,3,1,11,23,80,330,34,16,66,080,33,09,43,311,39,51,43,183,*74
$GPGSV,3,2,11,03,33,197,36,07,28,269,42,22,17,184,31,08,05,158,22*7F
$GPGSV,3,3,11,31,05,072,19,27,,,22,26,,,39*48
$GPGGA,142212.000,4000.3900,N,10515.7090,W,1,06,1.39,1655.2,M,-20.6,M,,*69
$GPGSV,3,1,11,23,80,330,35,16,66,080,33,09,43,311,40,48,35,219,*72
$GPGSV,3,2,11,03,33,197,35,07,28,269,41,22,17,184,30,08,05,158,*7E
$GPGSV,3,3,11,31,05,072,19,27,,,30,26,,,40*45
$GPGGA,142213.000,4000.3908,N,10515.7091,W,1,06,2.29,1655.1,M,-20.6,M,,*60
$GPGSV,3,1,11,23,80,330,35,16,66,080,33,09,43,311,41,48,35,219,*73
$GPGSV,3,2,11,03,33,197,33,07,28,269,41,22,17,184,29,08,05,158,*70
$GPGSV,3,3,11,31,05,072,19,27,,,28,26,,,39*42
$GPGGA,142214.000,4000.3916,N,10515.7092,W,1,06,2.29,1655.0,M,-20.6,M,,*6A
$GPGSV,3,1,11,23,80,330,36,16,66,080,33,09,43,311,42,48,35,219,*73
$GPGSV,3,2,11,03,33,197,32,07,28,269,41,22,17,184,29,08,05,158,*71
$GPGSV,3,3,11,31,04,072,19,27,,,28,26,,,30*4A
$GPGGA,142215.000,4000.3924,N,10515.7091,W,1,06,2.29,1655.0,M,-20.6,M,,*69
$GPGSV,3,1,11,23,80,330,35,16,66,080,33,09,43,311,42,48,35,219,*70
$GPGSV,3,2,11,03,33,197,31,07,28,269,41,22,17,184,29,08,05,158,*72
$GPGSV,3,3,11,31,04,072,18,27,,,27,26,,,30*44
$GPGGA,142216.000,4000.3933,N,10515.7091,W,1,06,2.29,1655.0,M,-20.6,M,,*6C
$GPGSV,3,1,11,23,80,330,36,16,66,080,33,09,43,311,28,48,35,219,*7F
$GPGSV,3,2,11,03,33,197,30,07,28,269,40,22,17,184,29,08,05,158,*72
$GPGSV,3,3,11,31,04,072,18,27,,,35,26,,,39*4E
$GPGGA,142217.000,4000.3937,N,10515.7087,W,1,06,2.29,1654.7,M,-20.6,M,,*68
$GPGSV,3,1,11,23,80,330,36,16,66,080,33,09,43,311,28,48,35,219,*7F
$GPGSV,3,2,11,03,33,197,28,07,28,269,42,22,17,184,29,08,05,158,*79
$GPGSV,3,3,11,31,04,072,18,27,,,33,26,,,40*46
$GPGGA,142218.000,4000.3942,N,10515.7084,W,1,06,1.39,1654.4,M,-20.6,M,,*67
$GPGSV,3,1,11,23,80,330,37,16,66,080,33,09,43,311,42,48,35,219,*72
$GPGSV,3,2,11,03,33,197,28,07,28,269,42,22,17,184,29,08,05,158,*79
$GPGSV,3,3,11,31,04,072,18,27,,,25,26,,,41*40
$GPGGA,142219.000,4000.3946,N,10515.7083,W,1,06,2.29,1653.9,M,-20.6,M,,*6D
$GPGSV,3,1,11,23,80,330,37,16,66,080,34,09,43,311,28,48,35,219,*79
$GPGSV,3,2,11,03,33,197,29,07,28,269,30,22,17,184,29,08,05,158,*7D
$GPGSV,3,3,11,31,04,072,17,27,,,25,26,,,27*4F
$GPGGA,142220.000,4000.3951,N,10515.7083,W,1,06,2.29,1653.6,M,-20.6,M,,*6E
$GPGSV,3,1,11,23,80,330,36,16,66,080,32,09,43,311,41,48,35,219,*71
$GPGSV,3,2,11,03,33,197,38,07,28,269,31,22,17,184,29,08,05,158,*7C
$GPGSV,3,3,11,31,04,072,,27,,,24,26,,,38*46
$GPGGA,142221.000,4000.3955,N,10515.7084,W,1,06,2.29,1653.2,M,-20.6,M,,*68
$GPGSV,3,1,11,23,80,330,38,16,66,080,39,09,43,311,41,03,33,197,30*7B
$GPGSV,3,2,11,07,28,269,32,22,17,184,30,08,05,158,,31,04,072,*73
$GPGSV,3,3,11,34,,,,27,,,24,26,,,36*7C
$GPGGA,142222.000,4000.3959,N,10515.7084,W,1,06,2.29,1653.1,M,-20.6,M,,*64
$GPGSV,3,1,11,23,80,330,37,16,66,080,38,09,43,311,40,03,33,197,30*74
$GPGSV,3,2,11,07,28,269,41,22,17,184,31,08,05,158,,31,04,072,*76
$GPGSV,3,3,11,34,,,,27,,,24,26,,,29*72
$GPGGA,142223.000,4000.3964,N,10515.7081,W,1,06,2.28,1652.4,M,-20.6,M,,*6B
$GPGSV,3,1,11,23,80,330,37,16,66,080,37,09,43,311,41,03,33,197,30*7A
$GPGSV,3,2,11,07,28,269,41,22,17,184,29,08,05,158,,31,04,072,*7F
$GPGSV,3,3,11,34,,,,27,,,23,26,,,28*74
$GPGGA,142224.000,4000.3967,N,10515.7080,W,1,06,2.29,1652.0,M,-20.6,M,,*6B
$GPGSV,3,1,11,23,80,330,36,16,66,080,30,09,43,311,42,03,33,197,31*7E
$GPGSV,3,2,11,07,28,269,30,22,17,184,28,08,05,158,,31,04,072,*78
$GPGSV,3,3,11,34,,,,27,,,23,26,,,29*75
$GPGGA,142225.000,4000.3971,N,10515.7081,W,1,06,2.29,1651.7,M,-20.6,M,,*68
$GPGSV,3,1,11,23,80,330,35,16,66,080,30,09,43,311,27,03,33,197,31*7E
$GPGSV,3,2,11,07,29,269,30,22,17,184,29,08,05,158,,31,04,072,*78
$GPGSV,3,3,11,34,,,,27,,,23,26,,,28*74
$GPGGA,142226.000,4000.3974,N,10515.7079,W,1,06,2.29,1651.3,M,-20.6,M,,*6D
$GPGSV,3,1,11,23,80,330,34,16,66,080,30,09,43,311,44,03,33,197,31*7A
$GPGSV,3,2,11,07,29,269,40,22,17,184,28,08,05,158,,31,04,072,*7E
$GPGSV,3,3,11,34,,,,27,,,22,26,,,20*7D
$GPGGA,142227.000,4000.3977,N,10515.7080,W,1,06,2.29,1651.3,M,-20.6,M,,*69
$GPGSV,3,1,11,23,80,330,33,16,66,080,28,09,43,311,35,03,33,197,31*72
$GPGSV,3,2,11,07,29,269,30,22,17,184,29,08,05,158,,31,04,072,*78
$GPGSV,3,3,11,35,,,,27,,,22,26,,,20*7C
$GPGGA,142228.000,4000.3980,N,10515.7077,W,1,06,2.29,1650.7,M,-20.6,M,,*63
$GPGSV,3,1,11,23,80,330,41,16,66,080,26,09,43,311,23,03,33,197,31*7E
$GPGSV,3,2,11,07,29,269,32,22,17,184,30,08,05,158,,31,04,072,*72
$GPGSV,3,3,11,35,,,,27,,,22,26,,,20*7C
$GPGGA,142229.000,4000.3980,N,10515.7079,W,1,06,1.39,1651.8,M,-20.6,M,,*60
$GPGSV,3,1,11,23,80,330,41,16,66,080,26,09,43,311,23,03,33,197,31*7E
$GPGSV,3,2,11,07,29,269,41,22,17,184,29,08,05,158,,31,04,072,*7E
$GPGSV,3,3,11,35,,,,27,,,23,26,,,20*7D
$GPGGA,142230.000,4000.3984,N,10515.7079,W,1,06,1.39,1652.4,M,-20.6,M,,*63
$GPGSV,3,1,10,23,80,330,39,16,66,080,26,09,43,311,22,03,33,197,38*78
$GPGSV,3,2,10,07,29,269,30,22,17,184,30,08,05,158,,31,04,072,*71
$GPGSV,3,3,10,35,,,,27,,,22*7B
$GPGGA,142231.000,4000.3987,N,10515.7075,W,1,06,1.39,1652.4,M,-20.6,M,,*6D
$GPGSV,3,1,10,23,80,330,38,16,66,080,25,09,43,311,21,03,33,197,37*76
$GPGSV,3,2,10,07,29,269,32,22,17,184,39,08,05,158,,31,04,072,*7A
$GPGSV,3,3,10,35,,,,27,,,21*78
$GPGGA,142232.000,4000.3988,N,10515.7073,W,1,06,1.39,1652.1,M,-20.6,M,,*62
$GPGSV,3,1,10,23,80,330,38,16,66,080,24,09,43,311,20,03,33,197,36*77
$GPGSV,3,2,10,07,29,269,32,22,17,184,28,08,05,158,,31,04,072,*7A
$GPGSV,3,3,10,35,,,,27,,,21*78
$GPGGA,142233.000,4000.3994,N,10515.7078,W,1,05,1.99,1651.8,M,-20.6,M,,*66
$GPGSV,3,1,11,23,80,330,39,16,66,080,24,09,43,311,19,03,33,197,36*7D
$GPGSV,3,2,11,07,29,269,47,22,17,184,38,08,05,158,,31,04,072,*78
$GPGSV,3,3,11,36,,,,27,,,20,26,,,19*77
$GPGGA,142234.000,4000.3998,N,10515.7085,W,1,06,2.28,1651.9,M,-20.6,M,,*64
$GPGSV,3,1,11,23,80,330,38,16,65,080,32,09,43,311,19,03,33,197,36*78
$GPGSV,3,2,11,07,29,269,40,22,17,184,39,08,05,158,,31,04,072,*7E
$GPGSV,3,3,11,36,,,,27,,,20,26,,,18*76
$GPGGA,142235.000,4000.4002,N,10515.7089,W,1,06,1.39,1651.6,M,-20.6,M,,*68
$GPGSV,3,1,11,23,80,330,38,16,65,080,32,09,43,311,20,03,33,197,36*72
$GPGSV,3,2,11,07,29,269,40,22,17,184,30,08,05,158,,31,04,072,*77
$GPGSV,3,3,11,36,,,,27,,,20,26,,,20*7D
$GPGGA,142236.000,4000.4004,N,10515.7095,W,1,06,1.39,1651.4,M,-20.6,M,,*62
